cofo_number,date,year,status,permit_number,permit_type,permit_subtype,address,zip,homes,stories,building_size,zone,census_tract,lat,lon
118066,9/2/14,2014,CofO Issued,13010-10000-01876,Bldg-New,1 or 2 Family Dwelling,4430 N RICHARD CIR,90032,1,3,001 unit,[Q]R1-1D,2011.2,34.09729,-118.16396
139680,11/23/16,2016,CofO Issued,14010-70000-03633,Bldg-New,1 or 2 Family Dwelling,4240 N BARRETT ROAD,90032,1,3,001 unit,[Q]R1-1D,2011.2,34.09449,-118.16457
132513,11/23/15,2015,CofO Issued,14010-10000-03630,Bldg-New,1 or 2 Family Dwelling,4445 N RICHARD DR,90032,1,3,001 unit,[Q]R1-1D,2011.2,34.0975,-118.16487
144499,5/5/18,2018,CofO Issued,15010-20000-01305,Bldg-New,1 or 2 Family Dwelling,4412 N RICHARD DR,90032,1,2,001 unit,[Q]R1-1D,2011.2,34.09674,-118.16489
136782,7/25/17,2017,CofO Issued,14010-10000-02837,Bldg-New,1 or 2 Family Dwelling,3158 N FARNSWORTH AVE,90032,1,1,001 unit,R1-1,2015.01,34.08257,-118.16532
144766,11/17/16,2016,CofO Issued,16016-10000-00367,Bldg-Alter/Repair,1 or 2 Family Dwelling,3153 N FARNSWORTH AVE,90032,1,2,001 unit,R1-1,2015.01,34.08238,-118.16571
157414,7/28/17,2017,CofO Issued,15014-10000-04813,Bldg-Addition,1 or 2 Family Dwelling,3444 N FARNSWORTH AVE,90032,1,0,001 unit,R1-1,2015.01,34.08632,-118.16689
159835,4/2/19,2019,CofO Issued,16010-10000-02158,Bldg-New,1 or 2 Family Dwelling,5347 E TEMPLETON ST,90032,1,2,001 unit,R2-1,2015.01,34.08511,-118.1671
109819,12/22/15,2015,CofO Issued,11010-10000-01202,Bldg-New,1 or 2 Family Dwelling,4242 N GUARDIA AVE,90032,1,1,001 unit,[Q]RE20-1D,2011.2,34.09508,-118.16749
163005,11/10/18,2018,CofO Issued,16010-10000-01042,Bldg-New,1 or 2 Family Dwelling,4028 N BARRETT ROAD,90032,1,2,001 unit,[Q]R1-1D,2011.2,34.09178,-118.16761
143190,3/2/18,2018,CofO Issued,15016-10000-04660,Bldg-Alter/Repair,Apartment,5366 E ITHACA AVE,90032,1,0,001 unit,RD1.5-1,2016.02,34.07701,-118.16951
135550,5/9/16,2016,CofO Issued,14010-10000-03762,Bldg-New,1 or 2 Family Dwelling,5211 E EDNA ST,90032,1,2,001 unit,RD3-1,2015.04,34.08389,-118.1698
130177,7/29/16,2016,CofO Issued,12010-10000-00784,Bldg-New,1 or 2 Family Dwelling,3312 N CHADWICK DR,90032,1,2,001 unit,RD3-1,2015.04,34.08419,-118.17008
151680,2/22/17,2017,CofO Issued,16016-10000-00257,Bldg-Alter/Repair,1 or 2 Family Dwelling,805 N BRIDEWELL ST,90042,1,2,001 unit,RD1.5-1,1831.03,34.1171,-118.17047
131518,3/3/18,2018,CofO Issued,14010-10000-00873,Bldg-New,1 or 2 Family Dwelling,6815 E HOUGH ST,90042,1,3,001 unit,RD1.5-1,1831.03,34.11729,-118.17089
131520,3/3/18,2018,CofO Issued,14010-10000-00872,Bldg-New,1 or 2 Family Dwelling,6813 E HOUGH ST,90042,1,3,001 unit,RD1.5-1,1831.03,34.11737,-118.17097
131521,3/3/18,2018,CofO Issued,14010-10000-00871,Bldg-New,1 or 2 Family Dwelling,6811 E HOUGH ST,90042,1,3,001 unit,RD1.5-1,1831.03,34.11747,-118.17108
131522,3/3/18,2018,CofO Issued,14010-10000-00870,Bldg-New,1 or 2 Family Dwelling,800 N CHESTNUT AVE,90042,1,3,001 unit,RD1.5-1,1831.03,34.1176,-118.17112
139753,2/12/17,2017,CofO Issued,15010-10000-01516,Bldg-New,1 or 2 Family Dwelling,5193 E BORLAND ROAD,90032,1,2,001 unit,RD1.5-1,2017,34.07188,-118.17133
163449,1/4/18,2018,CofO Issued,17016-20000-00202,Bldg-Alter/Repair,1 or 2 Family Dwelling,2922 N ADKINS AVE,90032,1,,001 unit,[Q]R1-1D,2016.02,34.07938,-118.17133
162444,1/13/19,2019,CofO Issued,16010-10000-03685,Bldg-New,1 or 2 Family Dwelling,703 N BRIDEWELL ST,90042,1,3,001 unit,RD1.5-1,1831.03,34.1165,-118.17134
132481,3/23/16,2016,CofO Issued,14016-10000-00810,Bldg-Alter/Repair,1 or 2 Family Dwelling,5120 E HUNTINGTON DR,90032,2,,002-004 units,[Q]C4-1XL,2015.01,34.08877,-118.17134
162446,1/13/19,2019,CofO Issued,16010-10000-03687,Bldg-New,1 or 2 Family Dwelling,701 N BRIDEWELL ST,90042,1,3,001 unit,RD1.5-1,1831.03,34.11643,-118.17149
162445,4/2/19,2019,CofO Issued,16010-10000-03686,Bldg-New,1 or 2 Family Dwelling,701 N BRIDEWELL ST,90042,1,3,001 unit,RD1.5-1,1831.03,34.11643,-118.17149
162443,1/13/19,2019,CofO Issued,16010-10000-03684,Bldg-New,1 or 2 Family Dwelling,703 N BRIDEWELL ST,90042,1,3,001 unit,RD1.5-1,1831.03,34.11655,-118.17156
138978,12/14/16,2016,CofO Issued,15016-20000-12597,Bldg-Alter/Repair,1 or 2 Family Dwelling,5151 E CAVANAGH ROAD,90032,1,0,001 unit,[Q]R1-1D,2017,34.0698,-118.17173
51332,12/16/17,2017,CofO Issued,07010-10000-01680,Bldg-New,1 or 2 Family Dwelling,5116 E TEMPLETON ST,90032,1,2,001 unit,RD3-1,2015.04,34.08303,-118.17175
99998,8/29/13,2013,CofO Issued,11010-20000-00662,Bldg-New,1 or 2 Family Dwelling,3320 N LINDA VISTA TER,90032,2,2,002-004 units,[Q]RD3-1D,2015.03,34.08411,-118.17225
146872,10/4/17,2017,CofO Issued,15010-20000-03558,Bldg-New,1 or 2 Family Dwelling,1993 N LANSDOWNE AVE,90032,1,2,001 unit,[Q]R1-1D,2017,34.06641,-118.17254
158471,8/7/18,2018,CofO Issued,15010-70000-03166,Bldg-New,1 or 2 Family Dwelling,2619 N ROUND DR,90032,1,2,001 unit,[Q]R1-1D,2016.02,34.07825,-118.17273
111539,12/15/15,2015,CofO Issued,09010-10000-00523,Bldg-New,1 or 2 Family Dwelling,5100 E CAVANAGH ROAD,90032,1,3,001 unit,[Q]R1-1D,2017,34.06905,-118.17317
59579,6/19/14,2014,CofO Corrected,05010-10000-04368,Bldg-New,1 or 2 Family Dwelling,961 N AVENUE 66 ,90042,1,2,001 unit,R1-1,1831.02,34.12318,-118.17328
132578,1/7/17,2017,CofO Issued,13010-20000-02531,Bldg-New,1 or 2 Family Dwelling,4035 N JENNINGS DR,90032,1,2,001 unit,[Q]R1-1D,2011.1,34.09171,-118.1733
156133,9/24/17,2017,CofO Issued,14016-10000-11875,Bldg-Alter/Repair,1 or 2 Family Dwelling,5009 E AXTELL ST,90032,1,,001 unit,RD3-1,2015.03,34.08639,-118.1734
89925,2/22/13,2013,CofO Issued,09010-20000-00430,Bldg-New,1 or 2 Family Dwelling,4037 N JENNINGS DR,90032,1,2,001 unit,[Q]R1-1D,2011.1,34.09196,-118.17345
57469,6/20/14,2014,CofO Issued,07010-10000-03824,Bldg-New,1 or 2 Family Dwelling,930 N STALEY LANE,90042,1,2,001 unit,R1-1,1831.02,34.12247,-118.17372
60324,6/20/14,2014,CofO Issued,07010-10000-03826,Bldg-New,1 or 2 Family Dwelling,945 N STALEY LANE,90042,1,2,001 unit,R1-1,1831.02,34.12287,-118.17374
132771,9/8/17,2017,CofO Issued,13010-10000-02516,Bldg-New,1 or 2 Family Dwelling,2010 N BARNETT WAY,90032,1,2,001 unit,[Q]R1-1D,2017,34.06654,-118.17393
57471,6/20/14,2014,CofO Issued,07010-10000-03825,Bldg-New,1 or 2 Family Dwelling,931 N STALEY LANE,90042,1,2,001 unit,R1-1,1831.02,34.12249,-118.17397
142412,5/8/18,2018,CofO Issued,14010-10000-00921,Bldg-New,1 or 2 Family Dwelling,1997 N BARNETT WAY,90032,1,3,001 unit,[Q]R1-1D,2017,34.06645,-118.17457
122310,7/17/15,2015,CofO Issued,13010-10000-03194,Bldg-New,1 or 2 Family Dwelling,2914 N CHADWICK DR,90032,1,2,001 unit,[Q]R1-1D,2015.04,34.07979,-118.1746
129747,4/4/16,2016,CofO Issued,13010-10000-03608,Bldg-New,Commercial,3559 N PUEBLO AVE,90032,2,2,002-004 units,[Q]C4-1XL,2015.03,34.08698,-118.17462
149317,3/28/17,2017,CofO Issued,15010-70000-02498,Bldg-New,1 or 2 Family Dwelling,2900 N CHADWICK DR,90032,1,2,001 unit,[Q]R1-1D,2015.04,34.07964,-118.17468
101948,3/12/13,2013,CofO Issued,12016-10000-00661,Bldg-Alter/Repair,Apartment,729 N AVENUE 66 ,90042,2,2,002-004 units,RD2-1-HPOZ,1831.02,34.11948,-118.17505
114535,6/29/16,2016,CofO Issued,12010-10000-01753,Bldg-New,1 or 2 Family Dwelling,3986 N DRYSDALE AVE,90032,1,2,001 unit,[Q]R1-1D,2011.1,34.09228,-118.17519
140252,12/15/16,2016,CofO Issued,14014-10000-03795,Bldg-Addition,1 or 2 Family Dwelling,3907 N DRYSDALE AVE,90032,1,1,001 unit,[Q]R1-1D,2011.1,34.09015,-118.17531
114005,10/22/14,2014,CofO Issued,12010-10000-01759,Bldg-New,1 or 2 Family Dwelling,4873 E FARQUHAR ST,90032,1,2,001 unit,[Q]R1-1D,2017,34.06521,-118.17565
114006,10/22/14,2014,CofO Issued,12010-10000-01760,Bldg-New,1 or 2 Family Dwelling,4877 E FARQUHAR ST,90032,1,2,001 unit,[Q]R1-1D,2017,34.06509,-118.17566
148595,11/20/16,2016,CofO Issued,15010-10000-03382,Bldg-New,1 or 2 Family Dwelling,4893 E AXTELL ST,90032,1,1,001 unit,RD3-1,2015.03,34.0852,-118.17623
144488,3/28/17,2017,CofO Issued,15010-20000-03065,Bldg-New,1 or 2 Family Dwelling,4843 E SELDNER ST,90032,1,2,001 unit,[Q]R1-1D,2017,34.06401,-118.17632
139055,8/19/17,2017,CofO Issued,13010-10000-04208,Bldg-New,1 or 2 Family Dwelling,5015 E LA CALANDRIA DR,90032,1,3,001 unit,[Q]R1-1D,2016.01,34.07463,-118.17649
120888,7/22/17,2017,CofO Issued,12016-10000-22843,Bldg-Alter/Repair,1 or 2 Family Dwelling,1121 N AVENUE 64 ,90042,1,0,001 unit,R1-1-HPOZ,1831.01,34.12583,-118.17678
147544,1/11/19,2019,CofO Issued,14010-10000-02814,Bldg-New,1 or 2 Family Dwelling,4911 E KIMBALL ST,90032,1,2,001 unit,[Q]R1-1D,2016.01,34.07459,-118.17766
112625,7/30/13,2013,CofO Issued,01010-70000-01982,Bldg-New,1 or 2 Family Dwelling,4943 E RENOVO ST,90032,1,1,001 unit,R1-1,2012,34.09094,-118.17768
144029,8/9/16,2016,CofO Corrected,15010-10000-03355,Bldg-New,1 or 2 Family Dwelling,4943 E RENOVO ST,90032,1,1,001 unit,[Q]R1-1D,2012,34.09094,-118.17768
121412,2/6/16,2016,CofO Corrected,13010-10000-01327,Bldg-New,1 or 2 Family Dwelling,4905 E KIMBALL ST,90032,1,3,001 unit,[Q]R1-1D,2016.01,34.07449,-118.17798
158010,3/18/17,2017,CofO Issued,16016-10000-27528,Bldg-Alter/Repair,1 or 2 Family Dwelling,6515 E CRESCENT ST,90042,1,1,001 unit,RD2-1-HPOZ,1831.03,34.11664,-118.178
155762,8/27/17,2017,CofO Issued,04014-20000-01127,Bldg-Addition,1 or 2 Family Dwelling,2204 N BRAWLEY ST,90032,1,1,001 unit,RD2-1,2016,34.06976,-118.17800
130279,11/15/16,2016,CofO Issued,14010-20000-02983,Bldg-New,1 or 2 Family Dwelling,828 N CRESTHAVEN DR,90042,1,2,001 unit,R1-1-HPOZ,1831.01,34.1219,-118.17801
164055,10/2/18,2018,CofO Issued,16010-10000-05497,Bldg-New,1 or 2 Family Dwelling,6511 E CRESCENT ST,90042,1,2,001 unit,RD2-1-HPOZ,1831.03,34.11669,-118.17811
141750,11/14/17,2017,CofO Issued,15010-10000-02620,Bldg-New,1 or 2 Family Dwelling,6427 E ELGIN ST,90042,1,1,001 unit,RD2-1-HPOZ,1831.03,34.1179,-118.17832
159231,11/13/18,2018,CofO Issued,16010-10000-05251,Bldg-New,1 or 2 Family Dwelling,3342 N THELMA AVE,90032,1,2,001 unit,RD1.5-1,2014.01,34.08486,-118.17898
101105,8/28/15,2015,CofO Issued,08010-10000-01717,Bldg-New,1 or 2 Family Dwelling,3851 N RANDOLPH AVE,90032,1,2,001 unit,[Q] RD3-1D,2012,34.09124,-118.17979
144814,8/9/17,2017,CofO Issued,15016-10000-01340,Bldg-Alter/Repair,Commercial,6435 E YORK BLVD,90042,1,,001 unit,[Q]C4-1XL-HPOZ,1831.03,34.11418,-118.18029
128375,4/5/16,2016,CofO Issued,14010-20000-00523,Bldg-New,1 or 2 Family Dwelling,6247 N PINE CREST DR,90042,1,1,001 unit,[Q]R1-1D,1837.02,34.10813,-118.18044
125052,3/14/16,2016,CofO Issued,11010-10000-01329,Bldg-New,1 or 2 Family Dwelling,707 S AVENUE 60 ,90042,1,2,001 unit,[Q]R1-1D,1837.02,34.10479,-118.18065
145020,3/3/18,2018,CofO Issued,14010-10000-03246,Bldg-New,1 or 2 Family Dwelling,1210 N AVENUE 63 ,91105,1,2,001 unit,R1-1,1831.01,34.12736,-118.18088
98657,9/6/13,2013,CofO Issued,11010-20000-01211,Bldg-New,1 or 2 Family Dwelling,6227 N PINE CREST DR,90042,1,2,001 unit,[Q]R1-1D,1837.02,34.10764,-118.18111
98651,9/9/13,2013,CofO Issued,11010-20000-01199,Bldg-New,1 or 2 Family Dwelling,6223 N PINE CREST DR,90042,1,2,001 unit,[Q]R1-1D,1837.02,34.10764,-118.18111
148096,3/13/17,2017,CofO Issued,16016-10000-03731,Bldg-Alter/Repair,Apartment,6311 E MONTEREY ROAD,90042,40,,020-049 units,R1-1,1837.02,34.10884,-118.18147
126018,9/8/16,2016,CofO Issued,12010-20000-01649,Bldg-New,1 or 2 Family Dwelling,400 N KIRBY ST,90042,1,2,001 unit,R1-1,1831.01,34.12234,-118.18335
31179,9/28/15,2015,CofO Issued,05010-10000-06801,Bldg-New,1 or 2 Family Dwelling,6403 N FIGUEROA ST,90042,1,2,001 unit,RD1.5-1,1831.01,34.11809,-118.18378
134771,5/26/15,2015,CofO Issued,14016-10000-23918,Bldg-Alter/Repair,Commercial,6311 N FIGUEROA ST,90042,1,,001 unit,[Q]C4-1VL,1832.2,34.11582,-118.18427
142120,6/16/16,2016,CofO Issued,14010-70000-03573,Bldg-New,1 or 2 Family Dwelling,543 E COLEMAN AVE,90042,1,2,001 unit,R1-1,1837.02,34.10274,-118.18445
135105,4/4/19,2019,CofO Issued,14010-10000-02427,Bldg-New,1 or 2 Family Dwelling,4564 E CATALPA ST,90032,2,3,002-004 units,RD2-1,2014.02,34.06318,-118.18493
110064,4/25/14,2014,CofO Issued,12010-10000-01521,Bldg-New,1 or 2 Family Dwelling,4553 E RICHELIEU TER,90032,1,2,001 unit,[Q]R1-1D,2014.01,34.07656,-118.18503
135102,1/29/16,2016,CofO Issued,15016-10000-03294,Bldg-Alter/Repair,1 or 2 Family Dwelling,6727 N FIGUEROA ST,90042,1,0,001 unit,RD1.5-1,1832.21,34.1244,-118.18595
145661,2/7/18,2018,CofO Issued,15010-20000-00774,Bldg-New,1 or 2 Family Dwelling,1854 N BOCA AVE,90032,1,2,001 unit,[Q]R1-1D,2014.02,34.06422,-118.18604
113054,11/6/13,2013,CofO Issued,13014-10000-01766,Bldg-Addition,1 or 2 Family Dwelling,5543 E VIA MARISOL ,90042,1,1,001 unit,RD1.5-1,1837.02,34.10408,-118.18676
130426,12/2/17,2017,CofO Issued,14010-10000-01479,Bldg-New,1 or 2 Family Dwelling,1052 N GLEN ARBOR AVE,90041,1,2,001 unit,R1-1,1815,34.13362,-118.18741
130424,11/22/17,2017,CofO Issued,14010-10000-01480,Bldg-New,1 or 2 Family Dwelling,1046 N GLEN ARBOR AVE,90041,1,2,001 unit,R1-1,1815,34.13356,-118.18756
35814,3/29/13,2013,CofO Issued,06010-10000-01122,Bldg-New,1 or 2 Family Dwelling,4414 E JASPER ST,90032,1,3,001 unit,R1-1,2014.01,34.08026,-118.18816
56053,3/12/14,2014,CofO Issued,05010-10000-06241,Bldg-New,1 or 2 Family Dwelling,6166 E MESA AVE,90042,1,2,001 unit,RD2-1,1836.2,34.11682,-118.18854
56052,3/12/14,2014,CofO Issued,05010-10000-06240,Bldg-New,1 or 2 Family Dwelling,6166 E MESA AVE,90042,1,2,001 unit,RD2-1,1836.2,34.11682,-118.18854
56054,3/12/14,2014,CofO Issued,05010-10000-06242,Bldg-New,1 or 2 Family Dwelling,6170 E MESA AVE,90042,1,2,001 unit,RD2-1,1836.2,34.11682,-118.18854
56055,3/12/14,2014,CofO Issued,05010-10000-06243,Bldg-New,1 or 2 Family Dwelling,6168 E MESA AVE,90042,1,2,001 unit,RD2-1,1836.2,34.11682,-118.18854
56051,3/12/14,2014,CofO Issued,05010-10000-06239,Bldg-New,1 or 2 Family Dwelling,6164 E MESA AVE,90042,1,2,001 unit,RD2-1,1836.2,34.11682,-118.18854
56034,3/12/14,2014,CofO Issued,05010-10000-04554,Bldg-New,1 or 2 Family Dwelling,6172 E MESA AVE,90042,1,2,001 unit,RD2-1,1836.2,34.11682,-118.18854
115805,4/29/14,2014,CofO Corrected,12010-20000-02668,Bldg-New,1 or 2 Family Dwelling,1508 N MERCURY DR,90042,1,2,001 unit,R1-1,1832.1,34.12695,-118.18855
115806,5/6/14,2014,CofO Corrected,12010-20000-02669,Bldg-New,1 or 2 Family Dwelling,1516 N MERCURY DR,90042,1,3,001 unit,R1-1,1832.21,34.12703,-118.18861
115811,5/6/14,2014,CofO Corrected,13010-20000-00641,Bldg-New,1 or 2 Family Dwelling,1522 N MERCURY DR,90042,1,3,001 unit,R1-1,1832.1,34.12706,-118.18869
115812,5/6/14,2014,CofO Corrected,13010-20000-00642,Bldg-New,1 or 2 Family Dwelling,1528 N MERCURY DR,90042,1,3,001 unit,R1-1,1832.1,34.12708,-118.18877
115813,4/29/14,2014,CofO Corrected,13010-20000-00643,Bldg-New,1 or 2 Family Dwelling,1536 N MERCURY DR,90042,1,3,001 unit,R1-1,1832.1,34.12710,-118.18888
125805,7/17/15,2015,CofO Issued,13010-10000-03747,Bldg-New,1 or 2 Family Dwelling,6161 E MESA AVE,90042,2,2,002-004 units,RD2-1,1836.2,34.11707,-118.18889
115807,4/29/14,2014,CofO Corrected,12010-20000-02670,Bldg-New,1 or 2 Family Dwelling,1542 N MERCURY DR,90042,1,3,001 unit,R1-1,1832.2,34.12713,-118.18896
125804,7/23/15,2015,CofO Issued,13010-10000-03746,Bldg-New,1 or 2 Family Dwelling,6159 E MESA AVE,90042,2,3,002-004 units,RD2-1,1836.2,34.11707,-118.18901
115814,4/29/14,2014,CofO Corrected,13010-20000-00644,Bldg-New,1 or 2 Family Dwelling,1548 N MERCURY DR,90042,1,3,001 unit,R1-1,1832.1,34.12716,-118.18903
146774,10/30/16,2016,CofO Issued,15016-10000-27645,Bldg-Alter/Repair,1 or 2 Family Dwelling,6157 E MESA AVE,90042,1,0,001 unit,RD2-1,1836.2,34.11703,-118.18906
141392,11/22/17,2017,CofO Issued,14010-10000-02258,Bldg-New,1 or 2 Family Dwelling,6011 E ROY ST,90042,1,2,001 unit,R1-1,1832.21,34.1223,-118.18906
153009,6/2/17,2017,CofO Issued,15016-10000-07092,Bldg-Alter/Repair,1 or 2 Family Dwelling,4539 E FERNTOP DR,90032,1,1,001 unit,[Q]C4-1VL,2014.01,34.08239,-118.18923
118749,3/11/14,2014,CofO Issued,13010-20000-02220,Bldg-New,1 or 2 Family Dwelling,5928 E WEAVER ST,90042,1,1,001 unit,R1-1,1832.2,34.12106,-118.18935
139612,9/8/16,2016,CofO Issued,15010-20000-01342,Bldg-New,1 or 2 Family Dwelling,6178 E ALDAMA ST,90042,2,3,002-004 units,RD2-1,1836.2,34.11776,-118.18964
139643,9/17/16,2016,CofO Issued,15010-20000-01343,Bldg-New,1 or 2 Family Dwelling,6178 E ALDAMA ST,90042,2,3,002-004 units,RD2-1,1836.2,34.11776,-118.18964
94668,3/28/13,2013,CofO Issued,10014-10000-04513,Bldg-Addition,Apartment,6176 E ALDAMA ST,90042,3,2,002-004 units,RD2-1,1836.2,34.11769,-118.18985
142250,2/24/17,2017,CofO Issued,15010-10000-03066,Bldg-New,1 or 2 Family Dwelling,6127 E MESA AVE,90042,2,3,002-004 units,RD2-1,1836.2,34.11617,-118.19019
142247,2/24/17,2017,CofO Issued,15010-10000-03063,Bldg-New,1 or 2 Family Dwelling,6127 E MESA AVE,90042,2,3,002-004 units,RD2-1,1836.2,34.11617,-118.19019
169434,7/19/18,2018,CofO Issued,17010-70000-02146,Bldg-New,1 or 2 Family Dwelling,4522 E HUNTINGTON DR,90032,2,3,002-004 units,RD2-1,2013.01,34.08413,-118.19022
125613,1/7/15,2015,CofO Issued,14014-70000-02043,Bldg-Addition,1 or 2 Family Dwelling,4512 E HUNTINGTON DR,90032,1,2,001 unit,RD2-1,2013.01,34.08398,-118.19033
123110,10/6/15,2015,CofO Issued,13010-70000-01717,Bldg-New,Apartment,4621 E FERN PL,90032,5,2,005-009 units,RD1.5-1,2013.01,34.0819,-118.19049
116872,9/2/14,2014,CofO Issued,13010-20000-01684,Bldg-New,1 or 2 Family Dwelling,6152 E ALDAMA ST,90042,2,2,002-004 units,RD2-1,1836.2,34.11739,-118.19051
112596,8/13/13,2013,CofO Issued,13016-10000-06153,Bldg-Alter/Repair,1 or 2 Family Dwelling,6148 E ALDAMA ST,90042,1,,001 unit,RD2-1,1836.2,34.11736,-118.19056
136663,7/18/17,2017,CofO Issued,13010-30000-03745,Bldg-New,1 or 2 Family Dwelling,5815 E SPRINGVALE DR,90042,1,2,001 unit,R1-1,1832.21,34.12311,-118.19062
102374,4/23/13,2013,CofO Issued,11010-10000-02471,Bldg-New,1 or 2 Family Dwelling,3537 N AMETHYST ST,90032,1,1,001 unit,R1-1,2013.01,34.08463,-118.19077
141234,9/27/16,2016,CofO Issued,15010-10000-02450,Bldg-New,1 or 2 Family Dwelling,915 N CRESTWOOD TER,90042,1,1,001 unit,R1-1,1832.22,34.13068,-118.19077
65412,3/3/18,2018,CofO Issued,07016-10000-15061,Bldg-Alter/Repair,1 or 2 Family Dwelling,5850 E BUENA VISTA TER,90042,1,0,001 unit,R1-1,1832.1,34.13110,-118.19136
162377,1/16/18,2018,CofO Issued,17016-20000-02382,Bldg-Alter/Repair,1 or 2 Family Dwelling,1123 W OAK GROVE DR,90041,1,0,001 unit,R1-1,1832.22,34.13274,-118.19182
174092,11/6/18,2018,CofO Issued,16010-70000-05388,Bldg-New,1 or 2 Family Dwelling,4508 E ESMERALDA ST,90032,2,2,002-004 units,RD1.5-1,2013.01,34.08105,-118.19188
124037,4/9/15,2015,CofO Issued,13010-10000-03766,Bldg-New,1 or 2 Family Dwelling,5806 E TIPTON WAY,90042,1,2,001 unit,R1-1,1832.21,34.12944,-118.19194
174093,11/6/18,2018,CofO Issued,16010-70000-05390,Bldg-New,1 or 2 Family Dwelling,4510 E ESMERALDA ST,90032,2,2,002-004 units,RD1.5-1,2013.01,34.08135,-118.19201
137911,6/29/16,2016,CofO Issued,15016-20000-02741,Bldg-Alter/Repair,Apartment,4467 E TOURMALINE ST,90032,1,2,001 unit,RD1.5-1,1991.1,34.07945,-118.1926
121116,1/23/15,2015,CofO Issued,13010-10000-03532,Bldg-New,1 or 2 Family Dwelling,1501 N HIGHGATE AVE,90042,1,3,001 unit,R1-1,1832.21,34.12695,-118.1927
97847,1/10/16,2016,CofO Issued,11010-10000-00203,Bldg-New,1 or 2 Family Dwelling,5728 E BUCHANAN ST,90042,1,1,001 unit,RD2-1,1836.2,34.11755,-118.19291
165982,6/7/18,2018,CofO Issued,17010-10000-01766,Bldg-New,1 or 2 Family Dwelling,3672 E PERCY ST,90023,2,2,002-004 units,RD1.5-1-CUGU,2049.1,34.02557,-118.19323
165981,6/7/18,2018,CofO Issued,17010-10000-01765,Bldg-New,1 or 2 Family Dwelling,3672 E PERCY ST,90023,2,2,002-004 units,RD1.5-1-CUGU,2049.1,34.02557,-118.19323
165985,6/7/18,2018,CofO Issued,17010-10000-01767,Bldg-New,1 or 2 Family Dwelling,3672 E PERCY ST,90023,2,2,002-004 units,RD1.5-1-CUGU,2049.1,34.02557,-118.19323
108980,8/24/15,2015,CofO Issued,12010-10000-01020,Bldg-New,1 or 2 Family Dwelling,1335 W SAGINAW ST,90041,1,2,001 unit,R1-1,1815,34.13764,-118.19335
136306,1/21/16,2016,CofO Issued,15016-70000-02635,Bldg-Alter/Repair,1 or 2 Family Dwelling,3670 E PERCY ST,90023,1,,001 unit,RD1.5-1,2049.1,34.02563,-118.19338
148511,4/19/17,2017,CofO Issued,16010-10000-00961,Bldg-New,1 or 2 Family Dwelling,5717 E HANEMAN ST,90042,1,2,001 unit,R1-1,1832.21,34.12792,-118.19357
132298,4/2/16,2016,CofO Issued,14014-20000-04571,Bldg-Addition,1 or 2 Family Dwelling,410 S AVENUE 56 ,90042,1,2,001 unit,RD2-1,1838.2,34.10356,-118.1936
120133,11/13/14,2014,CofO Issued,13010-10000-02538,Bldg-New,1 or 2 Family Dwelling,1034 N STONE ST,90063,1,2,001 unit,R2-1,2032,34.04979,-118.19367
120977,12/15/15,2015,CofO Issued,12010-10000-02655,Bldg-New,1 or 2 Family Dwelling,1221 W VALROSE CT,90041,1,1,001 unit,R1-1,1815,34.13774,-118.19369
160371,8/4/18,2018,CofO Issued,16010-70000-03158,Bldg-New,1 or 2 Family Dwelling,3652 E PERCY ST,90023,2,2,002-004 units,RD1.5-1-CUGU,2049.1,34.02578,-118.19393
160372,10/20/18,2018,CofO Issued,16010-70000-03159,Bldg-New,1 or 2 Family Dwelling,3650 E PERCY ST,90023,2,2,002-004 units,RD1.5-1-CUGU,2049.1,34.0258,-118.19398
160373,10/20/18,2018,CofO Issued,16010-70000-03160,Bldg-New,1 or 2 Family Dwelling,3648 E PERCY ST,90023,2,2,002-004 units,RD1.5-1-CUGU,2049.1,34.02582,-118.19402
155067,3/3/17,2017,CofO Issued,16016-30000-24533,Bldg-Alter/Repair,1 or 2 Family Dwelling,3504 E EAGLE ST,90063,1,,001 unit,R2-1-CUGU,2039,34.03159,-118.19419
165357,5/12/18,2018,CofO Issued,17010-10000-01353,Bldg-New,1 or 2 Family Dwelling,3640 E PERCY ST,90023,2,2,002-004 units,RD1.5-1-CUGU,2049.1,34.02591,-118.19423
132367,10/27/15,2015,CofO Issued,14014-20000-04823,Bldg-Addition,1 or 2 Family Dwelling,1642 N MURCHISON ST,90033,1,1,001 unit,RD2-1,2031,34.06157,-118.19431
165359,5/12/18,2018,CofO Issued,17010-10000-01352,Bldg-New,1 or 2 Family Dwelling,3638 E PERCY ST,90023,2,2,002-004 units,RD1.5-1-CUGU,2049.1,34.02588,-118.19436
165354,5/12/18,2018,CofO Issued,17010-10000-01351,Bldg-New,1 or 2 Family Dwelling,3638 E PERCY ST,90023,2,2,002-004 units,RD1.5-1-CUGU,2049.1,34.02588,-118.19436
155280,8/15/18,2018,CofO Issued,16010-20000-00063,Bldg-New,1 or 2 Family Dwelling,1437 N AVENUE 57 ,90042,1,3,001 unit,R1-1,1832.21,34.12535,-118.19439
165692,6/2/18,2018,CofO Issued,17010-10000-01770,Bldg-New,1 or 2 Family Dwelling,3636 E PERCY ST,90023,2,2,002-004 units,RD1.5-1-CUGU,2049.1,34.02596,-118.1944
165691,6/2/18,2018,CofO Issued,17010-10000-01769,Bldg-New,1 or 2 Family Dwelling,3634 E PERCY ST,90023,2,2,002-004 units,RD1.5-1-CUGU,2049.1,34.02598,-118.19444
147308,8/22/17,2017,CofO Issued,16016-10000-02726,Bldg-Alter/Repair,Commercial,3751 E OLYMPIC BLVD,90023,8,2,005-009 units,C2-1,2049.2,34.01903,-118.19444
165690,6/2/18,2018,CofO Issued,17010-10000-01768,Bldg-New,1 or 2 Family Dwelling,3632 E PERCY ST,90023,2,2,002-004 units,RD1.5-1-CUGU,2049.1,34.026,-118.19448
71492,7/31/13,2013,CofO Issued,01014-10000-07273,Bldg-Addition,Apartment,4129 E ABNER ST,90032,1,2,001 unit,RD2-1,2014.02,34.06615,-118.19458
144546,2/7/17,2017,CofO Issued,15010-10000-03836,Bldg-New,1 or 2 Family Dwelling,3428 E GLEASON AVE,90063,2,2,002-004 units,R2-1,2039,34.03567,-118.19471
127193,4/24/15,2015,CofO Issued,14010-20000-02281,Bldg-New,1 or 2 Family Dwelling,1369 W YOSEMITE DR,90041,1,1,001 unit,R2-1,1815,34.13290,-118.19515
141741,6/15/17,2017,CofO Corrected,14010-20000-01821,Bldg-New,1 or 2 Family Dwelling,1369 N AVENUE 57 ,90042,1,3,001 unit,R1-1,1832.21,34.12451,-118.19518
132656,8/19/17,2017,CofO Issued,14010-10000-01261,Bldg-New,1 or 2 Family Dwelling,1349 W WILDWOOD DR,90041,1,2,001 unit,R1-1,1832.22,34.13019,-118.19564
129047,3/10/16,2016,CofO Issued,13010-10000-02244,Bldg-New,1 or 2 Family Dwelling,2800 N BERYL ST,90032,1,2,001 unit,[Q]R1-1D,1991.1,34.07837,-118.1957
109313,5/10/13,2013,CofO Issued,12010-10000-01960,Bldg-New,1 or 2 Family Dwelling,3039 E FAIRMOUNT ST,90063,2,2,002-004 units,RD1.5-1,2038,34.04859,-118.19571
123456,4/19/16,2016,CofO Issued,14010-10000-00299,Bldg-New,1 or 2 Family Dwelling,2765 E MARENGO ST,90033,2,2,002-004 units,RD1.5-1,2032,34.05462,-118.19577
166819,2/25/19,2019,CofO Issued,15010-20000-03000,Bldg-New,1 or 2 Family Dwelling,4225 E RAYNOL ST,90032,1,2,001 unit,[Q]R1-1D,1991.1,34.08399,-118.19579
166858,2/25/19,2019,CofO Issued,15010-20000-03002,Bldg-New,1 or 2 Family Dwelling,4223 E RAYNOL ST,90032,1,2,001 unit,[Q]R1-1D,1991.1,34.084,-118.19587
141453,7/31/17,2017,CofO Issued,15016-10000-20437,Bldg-Addition,1 or 2 Family Dwelling,5616 E ASH ST,90042,1,1,001 unit,RD2-1-HPOZ,1836.1,34.11248,-118.19593
151400,1/8/19,2019,CofO Issued,16010-70000-00783,Bldg-New,1 or 2 Family Dwelling,3556 E PERCY ST,90023,2,2,002-004 units,RD1.5-1,2049.1,34.02674,-118.19619
95648,7/3/14,2014,CofO Issued,11010-10000-00294,Bldg-New,1 or 2 Family Dwelling,1480 W HOLBROOK ST,90041,1,3,001 unit,R1-1,1815,34.13773,-118.19625
122303,12/22/15,2015,CofO Issued,13010-20000-00580,Bldg-New,1 or 2 Family Dwelling,4212 E RAYNOL ST,90032,1,2,001 unit,[Q]R1-1D,1991.1,34.08379,-118.19626
159963,12/20/18,2018,CofO Issued,15014-10000-05006,Bldg-Addition,Apartment,1565 N TREMONT ST,90033,2,2,002-004 units,RD1.5-1,2031,34.06082,-118.19627
121190,10/14/15,2015,CofO Issued,13010-20000-00710,Bldg-New,1 or 2 Family Dwelling,4203 E RAYNOL ST,90032,1,2,001 unit,[Q]R1-1D,1991.1,34.08398,-118.19637
92346,10/18/13,2013,CofO Issued,09010-10000-01784,Bldg-New,Commercial,1457 W COLORADO BLVD,90041,8,3,005-009 units,[Q]C4-2D,1810,34.13954,-118.1965
144402,2/3/18,2018,CofO Issued,15010-10000-01877,Bldg-New,1 or 2 Family Dwelling,4125 E MERCURY AVE,90031,1,2,001 unit,[Q]R1-1D,1992.02,34.08504,-118.19671
103677,11/7/14,2014,CofO Issued,11010-10000-01453,Bldg-New,Apartment,3555 E WHITTIER BLVD,90023,60,4,050-099 units,[Q]C2-1,2049.1,34.0261,-118.19681
119485,8/15/14,2014,CofO Issued,13010-20000-02999,Bldg-New,1 or 2 Family Dwelling,5532 E RANGE VIEW AVE,90042,1,3,001 unit,R1-1,1833,34.1227,-118.19699
50889,1/10/16,2016,CofO Issued,07010-10000-00463,Bldg-New,1 or 2 Family Dwelling,1583 N RICARDO ST,90033,1,2,001 unit,RD1.5-1,2031,34.06162,-118.19725
111266,11/21/14,2014,CofO Issued,12010-10000-00744,Bldg-New,Apartment,3535 E WHITTIER BLVD,90023,78,5,050-099 units,[Q]C2-1,2049.1,34.02634,-118.19728
133886,11/14/17,2017,CofO Issued,12010-10000-02904,Bldg-New,1 or 2 Family Dwelling,3107 N AMETHYST ST,90032,1,2,001 unit,[Q]R1-1D,1991.1,34.08146,-118.19729
152262,1/4/19,2019,CofO Corrected,15010-10000-02281,Bldg-New,1 or 2 Family Dwelling,4129 E RAYNOL ST,90032,1,2,001 unit,[Q]R1-1D,1992.02,34.08385,-118.1973
118526,4/3/14,2014,CofO Issued,13010-20000-03241,Bldg-New,1 or 2 Family Dwelling,5519 W NORDYKE ST,90042,1,2,001 unit,R1-1,1832.22,34.12810,-118.19733
160415,1/16/19,2019,CofO Issued,16010-10000-03969,Bldg-Addition,Apartment,1539 N RICARDO ST,90033,3,2,002-004 units,RD1.5-1,2031,34.06107,-118.19759
157143,3/21/18,2018,CofO Issued,16010-30000-02151,Bldg-New,1 or 2 Family Dwelling,419 S LORENA ST,90063,2,3,002-004 units,RD1.5-1,2041.2,34.03358,-118.19762
2368,3/16/16,2016,CofO Issued,04010-10000-04751,Bldg-New,1 or 2 Family Dwelling,1128 S MIRASOL ST,90023,1,2,001 unit,R2-1,2049.2,34.021,-118.19767
108613,1/28/15,2015,CofO Issued,12010-20000-00707,Bldg-New,Apartment,1106 N TREMONT ST,90033,3,2,002-004 units,RD1.5-1,2032,34.05495,-118.19779
158815,12/29/17,2017,CofO Issued,16010-70000-03322,Bldg-New,1 or 2 Family Dwelling,3527 E SISKIYOU ST,90023,2,3,002-004 units,RD1.5-1-CUGU,2049.1,34.02538,-118.19829
158814,12/29/17,2017,CofO Issued,16010-70000-03321,Bldg-New,1 or 2 Family Dwelling,3527 E SISKIYOU ST,90023,2,3,002-004 units,RD1.5-1-CUGU,2049.1,34.02538,-118.19829
125172,12/18/14,2014,CofO Issued,14010-70000-00938,Bldg-New,1 or 2 Family Dwelling,1434 N RICARDO ST,90033,2,2,002-004 units,RD1.5-1,2031,34.05937,-118.19835
158813,12/29/17,2017,CofO Issued,16010-70000-03320,Bldg-New,1 or 2 Family Dwelling,3525 E SISKIYOU ST,90023,1,2,001 unit,RD1.5-1-CUGU,2049.1,34.02542,-118.19838
125171,12/18/14,2014,CofO Issued,14010-70000-00937,Bldg-New,1 or 2 Family Dwelling,1432 N RICARDO ST,90033,2,2,002-004 units,RD1.5-1,2031,34.05929,-118.1984
37672,3/30/16,2016,CofO Issued,06010-10000-01353,Bldg-New,1 or 2 Family Dwelling,3845 E DUKE ST,90031,2,2,002-004 units,RD3-1,1991.2,34.07308,-118.19846
123089,11/7/14,2014,CofO Issued,13010-70000-01195,Bldg-New,1 or 2 Family Dwelling,1534 N SOTO ST,90033,1,2,001 unit,RD1.5-1,2031,34.0613,-118.19847
106814,7/30/13,2013,CofO Issued,12010-10000-01524,Bldg-New,1 or 2 Family Dwelling,1451 N RICARDO ST,90033,1,1,001 unit,RD2-1,2031,34.05964,-118.19848
158179,9/11/18,2018,CofO Issued,16010-20000-03148,Bldg-New,1 or 2 Family Dwelling,5308 E RABER ST,90042,1,3,001 unit,R1-1,1832.22,34.12693,-118.1985
115485,6/6/14,2014,CofO Corrected,13014-20000-00240,Bldg-Addition,1 or 2 Family Dwelling,1510 W YOSEMITE DR,90041,1,1,001 unit,R2-1,1832.22,34.13265,-118.19851
123087,11/7/14,2014,CofO Issued,13010-70000-01194,Bldg-New,1 or 2 Family Dwelling,1532 N SOTO ST,90033,2,2,002-004 units,RD1.5-1,2031,34.06122,-118.19852
163645,5/17/18,2018,CofO Issued,17016-10000-14508,Bldg-Alter/Repair,1 or 2 Family Dwelling,1506 W FAIR PARK AVE,90041,1,,001 unit,R1-1,1815,34.13362,-118.19856
155429,6/16/17,2017,CofO Issued,16010-70000-03165,Bldg-New,1 or 2 Family Dwelling,2675 E CHELSEA ST,90033,2,2,002-004 units,RD1.5-1,2031,34.05631,-118.19868
14345,2/21/16,2016,CofO Issued,04010-10000-03974,Bldg-New,1 or 2 Family Dwelling,525 S LORENA ST,90063,1,2,001 unit,C2-1,2041.2,34.03182,-118.19869
102530,2/5/15,2015,CofO Issued,12014-20000-00357,Bldg-Addition,1 or 2 Family Dwelling,2746 E WABASH AVE,90033,1,1,001 unit,RD1.5-1,2037.1,34.05058,-118.1987
155425,6/13/17,2017,CofO Issued,16010-70000-03166,Bldg-New,1 or 2 Family Dwelling,1313 N TREMONT ST,90033,2,2,002-004 units,RD1.5-1,2031,34.05658,-118.19872
119269,3/14/14,2014,CofO Issued,13016-10000-25503,Bldg-Alter/Repair,1 or 2 Family Dwelling,535 S LORENA ST,90063,1,2,001 unit,C2-1,2041.2,34.03156,-118.19874
105863,11/6/14,2014,CofO Issued,12010-10000-01563,Bldg-Addition,1 or 2 Family Dwelling,441 S BERNAL AVE,90063,1,1,001 unit,R2-1,2041.2,34.03341,-118.19887
120718,10/24/14,2014,CofO Issued,13010-10000-01514,Bldg-New,1 or 2 Family Dwelling,459 S BERNAL AVE,90063,2,2,002-004 units,R2-1,2041.2,34.03299,-118.19905
84874,12/4/13,2013,CofO Issued,10016-10000-01133,Bldg-Alter/Repair,1 or 2 Family Dwelling,3238 E 3RD ST,90063,1,1,001 unit,R2-1,2041.1,34.0358,-118.19907
146293,11/20/16,2016,CofO Issued,15010-70000-03831,Bldg-New,1 or 2 Family Dwelling,3577 E GARNET ST,90023,1,1,001 unit,R2-1,2049.2,34.02119,-118.19917
128661,7/8/16,2016,CofO Issued,12014-10000-01024,Bldg-Addition,1 or 2 Family Dwelling,1310 N AVENUE 54 ,90042,1,2,001 unit,RD2-1,1833,34.12016,-118.19918
170848,3/15/18,2018,CofO Issued,16016-10000-04774,Bldg-Alter/Repair,1 or 2 Family Dwelling,508 N AVENUE 54 ,90042,1,0,001 unit,R1-1-HPOZ,1835.2,34.11224,-118.19921
173312,12/28/18,2018,CofO Issued,17016-10000-34124,Bldg-Alter/Repair,1 or 2 Family Dwelling,1827 N AVENUE 53 ,90042,1,2,001 unit,R1-1,1832.22,34.12533,-118.19927
111525,7/24/14,2014,CofO Issued,12010-10000-01754,Bldg-New,Apartment,3553 E BESWICK ST,90023,33,3,020-049 units,(T)(Q)RD1.5-1,2049.2,34.02223,-118.19931
140531,5/27/16,2016,CofO Issued,15016-10000-19487,Bldg-Alter/Repair,1 or 2 Family Dwelling,125 N ELLITA PL,90042,1,0,001 unit,RD2-1-HPOZ,1838.1,34.10731,-118.19932
29492,1/25/19,2019,CofO Issued,06010-10000-00894,Bldg-New,1 or 2 Family Dwelling,2838 E BOULDER ST,90033,1,2,001 unit,RD1.5-1,2037.2,34.04589,-118.19934
29494,1/25/19,2019,CofO Issued,06010-10000-00892,Bldg-New,1 or 2 Family Dwelling,2836 E BOULDER ST,90033,2,2,002-004 units,RD1.5-1,2037.2,34.04589,-118.19934
130651,8/30/17,2017,CofO Issued,14010-10000-02401,Bldg-New,1 or 2 Family Dwelling,2437 E LANCASTER AVE,90033,2,2,002-004 units,RD2-1,2031,34.05914,-118.19934
161649,5/12/18,2018,CofO Issued,15010-10000-03833,Bldg-New,1 or 2 Family Dwelling,3429 E PERCY ST,90023,2,2,002-004 units,RD1.5-1,2048.1,34.02853,-118.19935
161651,5/12/18,2018,CofO Issued,15010-10000-03835,Bldg-New,1 or 2 Family Dwelling,3429 E PERCY ST,90023,2,2,002-004 units,RD1.5-1,2048.1,34.02853,-118.19935
161650,5/12/18,2018,CofO Issued,15010-10000-03834,Bldg-New,1 or 2 Family Dwelling,3429 E PERCY ST,90023,2,2,002-004 units,RD1.5-1,2048.1,34.02853,-118.19935
119991,8/28/15,2015,CofO Issued,13010-10000-02597,Bldg-New,1 or 2 Family Dwelling,1311 N AVENUE 54 ,90042,1,1,001 unit,RD2-1,1833,34.12051,-118.19936
161288,2/17/18,2018,CofO Issued,16010-10000-05126,Bldg-New,1 or 2 Family Dwelling,2816 E MALABAR ST,90033,2,2,002-004 units,RD1.5-1-CUGU,2037.2,34.04688,-118.19945
130653,8/27/17,2017,CofO Issued,14010-10000-02402,Bldg-New,1 or 2 Family Dwelling,2441 E LANCASTER AVE,90033,2,2,002-004 units,RD2-1,2031,34.05906,-118.19949
158732,1/29/19,2019,CofO Issued,16010-10000-02112,Bldg-New,1 or 2 Family Dwelling,5109 E ECHO ST,90042,1,3,001 unit,[Q]C4-2D-HPOZ,1838.1,34.10480,-118.19950
161290,2/17/18,2018,CofO Issued,16010-10000-05127,Bldg-New,1 or 2 Family Dwelling,2814 E MALABAR ST,90033,1,2,001 unit,RD1.5-1-CUGU,2037.2,34.04696,-118.19952
158738,9/10/18,2018,CofO Issued,16010-10000-02104,Bldg-New,1 or 2 Family Dwelling,5103 E ECHO ST,90042,1,3,001 unit,[Q]C4-2D-HPOZ,1838.1,34.10478,-118.19955
17966,3/16/18,2018,CofO Issued,05016-10000-15551,Bldg-Alter/Repair,Apartment,1462 N PLAY GROUND ST,90033,1,2,001 unit,PF-1,2033,34.06126,-118.19984
118077,6/10/15,2015,CofO Issued,13010-10000-02773,Bldg-New,1 or 2 Family Dwelling,3505 E ATLANTIC ST,90023,2,2,002-004 units,RD1.5-1,2049.1,34.02367,-118.20009
118313,6/10/15,2015,CofO Corrected,13010-10000-02866,Bldg-New,1 or 2 Family Dwelling,3505 E ATLANTIC ST,90023,1,2,001 unit,RD1.5-1,2049.1,34.02359,-118.20014
160857,12/24/18,2018,CofO Issued,16010-10000-05797,Bldg-New,1 or 2 Family Dwelling,1929 N PHILLIPS WAY,90042,1,2,001 unit,R1-1,1832.22,34.12751,-118.20022
114000,1/10/14,2014,CofO Issued,13010-10000-00296,Bldg-New,1 or 2 Family Dwelling,5321 E BUCHANAN ST,90042,1,1,001 unit,R1-1,1833,34.11845,-118.20025
158743,1/29/19,2019,CofO Issued,16010-10000-02099,Bldg-New,1 or 2 Family Dwelling,5061 E ECHO ST,90042,1,3,001 unit,[Q]C4-2D-HPOZ,1838.1,34.10439,-118.20033
3685,12/16/13,2013,CofO Issued,04010-10000-03897,Bldg-New,1 or 2 Family Dwelling,3667 N ROBERTA ST,90031,1,2,001 unit,R1-1,1992.02,34.08706,-118.20034
158748,1/29/19,2019,CofO Issued,16010-10000-01957,Bldg-New,1 or 2 Family Dwelling,5053 E ECHO ST,90042,1,3,001 unit,[Q]C4-2D-HPOZ,1838.1,34.10433,-118.20045
158758,1/29/19,2019,CofO Issued,16010-10000-01456,Bldg-New,1 or 2 Family Dwelling,5041 E ECHO ST,90042,1,3,001 unit,[Q]C4-2D-HPOZ,1838.1,34.10424,-118.20063
130030,2/9/17,2017,CofO Issued,14016-30000-07953,Bldg-Alter/Repair,Apartment,208 N AVENUE 52 ,90042,1,,001 unit,RD2-1-HPOZ,1838.1,34.10753,-118.20076
129060,2/1/16,2016,CofO Issued,13016-10000-04371,Bldg-Alter/Repair,Apartment,3025 E GLEASON AVE,90063,1,,001 unit,R2-1,2041.1,34.03896,-118.20108
26699,9/5/13,2013,CofO Issued,05016-10000-10536,Bldg-Alter/Repair,Commercial,3115 N SIERRA ST,90031,1,2,001 unit,R1-1,1991.1,34.08193,-118.20123
90337,7/31/17,2017,CofO Issued,10014-10000-03974,Bldg-Addition,1 or 2 Family Dwelling,3509 E OPAL ST,90023,1,2,001 unit,R2-1,2049.2,34.02124,-118.20149
132855,11/15/17,2017,CofO Issued,14010-10000-01873,Bldg-New,Commercial,2215 E ALCAZAR ST,90033,178,5,100-199 units,[T][Q]C2-1,2033,34.06357,-118.20153
137551,1/6/18,2018,CofO Issued,14016-10000-15979,Bldg-Alter/Repair,1 or 2 Family Dwelling,201 N AVENUE 51 ,90042,1,,001 unit,RD2-1-HPOZ,1838.1,34.10694,-118.20159
126046,6/4/15,2015,CofO Issued,14014-10000-01919,Bldg-Addition,1 or 2 Family Dwelling,1011 N FICKETT ST,90033,1,2,001 unit,R2-1,2032,34.05257,-118.20172
120281,9/23/14,2014,CofO Issued,13010-10000-02209,Bldg-New,1 or 2 Family Dwelling,3412 E 7TH ST,90023,2,2,002-004 units,RD1.5-1,2048.1,34.02538,-118.20193
156263,10/16/17,2017,CofO Issued,16010-10000-04356,Bldg-New,1 or 2 Family Dwelling,3402 E 7TH ST,90023,1,2,001 unit,RD1.5-1-CUGU,2048.1,34.02560,-118.20205
149828,3/8/17,2017,CofO Issued,16010-10000-00116,Bldg-New,1 or 2 Family Dwelling,1072 E MONTECITO DR,90031,1,3,001 unit,[Q]R1-1D,1992.02,34.08672,-118.20208
149604,10/19/17,2017,CofO Issued,16010-70000-00768,Bldg-New,1 or 2 Family Dwelling,2510 E HOUSTON ST,90033,2,2,002-004 units,RD1.5-1,2037.1,34.04993,-118.20264
149602,10/19/17,2017,CofO Issued,16010-70000-00765,Bldg-New,1 or 2 Family Dwelling,2508 E HOUSTON ST,90033,2,2,002-004 units,RD1.5-1,2037.1,34.04997,-118.20272
133037,3/14/16,2016,CofO Issued,14010-70000-03373,Bldg-New,1 or 2 Family Dwelling,2722 E CINCINNATI ST,90033,1,2,001 unit,RD1.5-1,2037.2,34.04552,-118.2029
111698,6/1/15,2015,CofO Issued,12010-10000-00621,Bldg-New,Apartment,2917 E 1ST ST,90033,53,5,050-099 units,C2-1,2042,34.04084,-118.20294
133036,3/14/16,2016,CofO Issued,14010-70000-03372,Bldg-New,1 or 2 Family Dwelling,2720 E CINCINNATI ST,90033,2,2,002-004 units,RD1.5-1,2037.2,34.04558,-118.20296
97300,12/18/15,2015,CofO Issued,11014-20000-02208,Bldg-Addition,1 or 2 Family Dwelling,5151 E LINCOLN AVE,90042,1,1,001 unit,[Q]C4-1XL,1833,34.11995,-118.20322
110467,10/29/13,2013,CofO Issued,12010-10000-02890,Bldg-New,1 or 2 Family Dwelling,712 S GRANDE VISTA AVE,90023,2,2,002-004 units,R2-1,2048.1,34.03031,-118.20333
62052,1/26/13,2013,CofO Issued,05010-10000-01824,Bldg-New,Apartment,359 N AVENUE 51 ,90042,3,2,002-004 units,RD1.5-1-HPOZ,1835.2,34.10937,-118.20335
11698,2/14/19,2019,CofO Issued,04010-10000-03298,Bldg-New,1 or 2 Family Dwelling,316 N SARATOGA ST,90033,2,1,002-004 units,R2-1,2042,34.04346,-118.20343
113582,10/9/14,2014,CofO Issued,13010-20000-00805,Bldg-New,1 or 2 Family Dwelling,5210 E IRVINGTON PL,90042,1,2,001 unit,R1-1,1835.1,34.11585,-118.20345
126790,6/21/16,2016,CofO Issued,14010-10000-01544,Bldg-New,1 or 2 Family Dwelling,5013 N MT ROYAL DR,90041,1,1,001 unit,R1-1,1814,34.13736,-118.20379
154056,11/28/17,2017,CofO Issued,16014-20000-01543,Bldg-Addition,Apartment,317 N AVENUE 50 ,90042,4,2,002-004 units,RD1.5-1,1835.2,34.10773,-118.20392
149409,2/8/17,2017,CofO Issued,16010-10000-00858,Bldg-New,1 or 2 Family Dwelling,146 S SAVANNAH ST,90033,2,2,002-004 units,R2-1,2043,34.03956,-118.20401
121298,5/22/14,2014,CofO Issued,13016-10000-19690,Bldg-Alter/Repair,1 or 2 Family Dwelling,2422 E HOUSTON ST,90033,1,1,001 unit,R3-1,2037.1,34.05071,-118.20434
144486,10/22/17,2017,CofO Issued,15016-10000-23823,Bldg-Alter/Repair,1 or 2 Family Dwelling,3185 E WHITTIER BLVD,90023,1,1,001 unit,C1-1,2048.1,34.02934,-118.20445
110469,6/26/15,2015,CofO Issued,12014-70000-00236,Bldg-Addition,1 or 2 Family Dwelling,5058 E SHIPLEY GLEN DR,90042,1,3,001 unit,R1-1,1835.2,34.11071,-118.20452
120147,11/24/14,2014,CofO Issued,13010-10000-03370,Bldg-New,1 or 2 Family Dwelling,1028 N AVENUE 51 ,90042,1,3,001 unit,R1-1,1835.1,34.11699,-118.20497
127500,9/22/15,2015,CofO Issued,14010-10000-00544,Bldg-New,1 or 2 Family Dwelling,5023 E CORINGA DR,90042,1,3,001 unit,R1-1,1816,34.12574,-118.20519
131207,6/16/16,2016,CofO Issued,13010-10000-00779,Bldg-New,1 or 2 Family Dwelling,5106 E SAN RAFAEL AVE,90042,1,1,001 unit,R1-1,1835.1,34.11319,-118.20539
17406,7/17/17,2017,CofO Issued,05014-10000-04524,Bldg-Addition,1 or 2 Family Dwelling,3352 E 8TH ST,90023,1,2,001 unit,RD1.5-1,2051.2,34.02169,-118.20555
161369,1/31/18,2018,CofO Issued,16010-70000-04561,Bldg-New,1 or 2 Family Dwelling,1126 N CHICAGO ST,90033,2,2,002-004 units,R3-1,2033,34.05656,-118.20571
137049,8/6/16,2016,CofO Issued,15010-10000-00311,Bldg-New,1 or 2 Family Dwelling,703 S SOTO ST,90033,2,2,002-004 units,R3-1,2036,34.05058,-118.20578
137050,8/6/16,2016,CofO Issued,15010-10000-00312,Bldg-New,1 or 2 Family Dwelling,701 N SOTO ST,90033,2,2,002-004 units,R3-1,2036,34.0505,-118.20583
149637,11/7/16,2016,CofO Issued,16010-70000-00905,Bldg-New,1 or 2 Family Dwelling,2818 E 3RD ST,90033,2,2,002-004 units,R2-1,2043,34.03891,-118.20594
101876,11/27/13,2013,CofO Issued,12016-10000-06447,Bldg-Alter/Repair,1 or 2 Family Dwelling,621 N SOTO ST,90033,1,2,001 unit,R3-1,2036,34.05008,-118.20596
40673,7/27/16,2016,CofO Issued,06014-10000-05746,Bldg-Addition,Apartment,325 N FICKETT ST,90033,1,2,001 unit,R3-1,2042,34.04489,-118.20613
163965,5/11/18,2018,CofO Issued,17016-20000-14700,Bldg-Addition,1 or 2 Family Dwelling,5038 E BALTIMORE ST,90042,1,1,001 unit,R1-1,1835.1,34.11842,-118.20625
159865,8/27/17,2017,CofO Issued,17016-20000-06411,Bldg-Addition,1 or 2 Family Dwelling,5018 E LINCOLN AVE,90042,1,1,001 unit,R1-1,1834.01,34.1203,-118.2064
27913,4/3/14,2014,CofO Issued,04010-10000-02670,Bldg-New,1 or 2 Family Dwelling,3326 E TWO TREE AVE,90031,1,3,001 unit,R1-1,1992.02,34.07833,-118.20641
27908,1/13/16,2016,CofO Issued,05010-10000-02154,Bldg-New,1 or 2 Family Dwelling,3320 E TWO TREE AVE,90031,1,3,001 unit,R1-1,1992.02,34.07842,-118.2066
96680,2/8/14,2014,CofO Issued,10010-20000-02596,Bldg-New,Commercial,2429 E CESAR E CHAVEZ AVE,90033,1,2,001 unit,C2-1,2037.2,34.04649,-118.20672
27909,2/18/16,2016,CofO Issued,05010-10000-02153,Bldg-New,1 or 2 Family Dwelling,3314 E TWO TREE AVE,90031,1,3,001 unit,R1-1,1992.02,34.07843,-118.20672
161321,7/21/18,2018,CofO Issued,00010-10000-03910,Bldg-New,1 or 2 Family Dwelling,3220 E BALDWIN ST,90031,2,2,002-004 units,RD3-1,1998,34.07014,-118.20702
117259,7/10/17,2017,CofO Issued,13016-10000-16479,Bldg-Alter/Repair,1 or 2 Family Dwelling,2129 E JUDSON ST,90033,1,1,001 unit,R2-1,2036,34.05276,-118.20756
105665,7/3/14,2014,CofO Issued,10010-10000-02456,Bldg-New,1 or 2 Family Dwelling,327 N CRANE BLVD,90065,1,2,001 unit,R1-1,1851,34.101,-118.20757
105668,7/3/14,2014,CofO Issued,10010-10000-02459,Bldg-New,1 or 2 Family Dwelling,331 N CRANE BLVD,90065,1,2,001 unit,R1-1,1851,34.10111,-118.20758
131293,6/5/15,2015,CofO Issued,14010-70000-03371,Bldg-New,1 or 2 Family Dwelling,4916 E STRATFORD ROAD,90042,1,2,001 unit,R1-1,1834.01,34.1234,-118.20792
117481,5/14/15,2015,CofO Issued,13014-10000-03009,Bldg-Addition,Apartment,333 N BREED ST,90033,2,2,002-004 units,R3-1,2036,34.04826,-118.20837
134924,3/26/19,2019,CofO Issued,15010-10000-00746,Bldg-New,1 or 2 Family Dwelling,1016 N FARNAM ST,90042,1,1,001 unit,R1-1,1862.03,34.11772,-118.20895
19506,4/15/13,2013,CofO Issued,05014-10000-07543,Bldg-Addition,1 or 2 Family Dwelling,1929 N HANCOCK ST,90031,1,1,001 unit,RD1.5-1,1999,34.06692,-118.2093
153762,3/6/18,2018,CofO Issued,16010-10000-02171,Bldg-New,1 or 2 Family Dwelling,1111 S DACOTAH ST,90023,1,2,001 unit,R2-1,2048.2,34.02604,-118.20935
129811,2/3/18,2018,CofO Issued,14010-30000-01586,Bldg-New,1 or 2 Family Dwelling,797 N TERRACE 49 ,90042,1,2,001 unit,R1-1,1851,34.1126,-118.20935
148209,4/6/18,2018,CofO Issued,15010-10000-02859,Bldg-New,Apartment,2419 E 1ST ST,90033,50,5,050-099 units,C2-1,2042,34.04369,-118.20936
129111,8/31/15,2015,CofO Issued,14010-10000-01552,Bldg-New,1 or 2 Family Dwelling,876 N EL PASO DR,90042,1,1,001 unit,R1-1,1862.03,34.11472,-118.20962
36566,7/2/13,2013,CofO Issued,05010-10000-04177,Bldg-New,1 or 2 Family Dwelling,633 N SUNNYHILL DR,90065,1,3,001 unit,R1-1,1851,34.10611,-118.2098
137889,3/3/18,2018,CofO Issued,13010-10000-03132,Bldg-New,1 or 2 Family Dwelling,649 N CROSS AVE,90065,1,3,001 unit,R1-1,1851,34.1074,-118.20985
137886,5/1/18,2018,CofO Issued,13010-10000-03134,Bldg-New,1 or 2 Family Dwelling,653 N CROSS AVE,90065,1,3,001 unit,R1-1,1851,34.1075,-118.2099
127405,8/30/17,2017,CofO Issued,14010-20000-00604,Bldg-New,1 or 2 Family Dwelling,912 N DEXTER ST,90042,1,2,001 unit,R1-1,1862.03,34.11555,-118.20991
21354,7/3/13,2013,CofO Issued,04010-70000-04613,Bldg-New,1 or 2 Family Dwelling,348 N CHICAGO ST,90033,2,1,002-004 units,RD1.5-1,2036,34.04911,-118.20994
137278,8/3/18,2018,CofO Issued,13010-10000-03133,Bldg-New,1 or 2 Family Dwelling,655 N CROSS AVE,90065,1,3,001 unit,R1-1,1851,34.1076,-118.20996
107768,12/16/13,2013,CofO Issued,12010-10000-00983,Bldg-New,1 or 2 Family Dwelling,4943 N GLEN IRIS AVE,90041,1,1,001 unit,R1-1,1814,34.1353,-118.21003
169269,10/3/18,2018,CofO Issued,17010-10000-01676,Bldg-New,1 or 2 Family Dwelling,4906 E MENDOTA AVE,90042,1,2,001 unit,R1-1,1862.03,34.11716,-118.21004
166502,8/22/18,2018,CofO Issued,16010-10000-05557,Bldg-New,Apartment,130 S SOTO ST,90033,5,3,005-009 units,RD1.5-1-CUGU,2043,34.04277,-118.21019
111818,5/9/13,2013,CofO Issued,02010-70000-03263,Bldg-New,1 or 2 Family Dwelling,638 N DIMMICK DR,90065,1,2,001 unit,R1-1,1851,34.10568,-118.21033
148920,10/16/17,2017,CofO Issued,16010-70000-00632,Bldg-New,1 or 2 Family Dwelling,2734 E OREGON ST,90023,2,2,002-004 units,RD1.5-1,2047,34.03291,-118.21033
148919,10/16/17,2017,CofO Issued,16010-70000-00631,Bldg-New,1 or 2 Family Dwelling,2732 E OREGON ST,90023,2,2,002-004 units,RD1.5-1,2047,34.03293,-118.21038
148793,10/16/17,2017,CofO Issued,16010-70000-00635,Bldg-New,1 or 2 Family Dwelling,2730 E OREGON ST,90023,2,2,002-004 units,RD1.5-1,2047,34.03297,-118.21046
148790,10/16/17,2017,CofO Issued,16010-70000-00634,Bldg-New,1 or 2 Family Dwelling,2728 E OREGON ST,90023,2,2,002-004 units,RD1.5-1,2047,34.03301,-118.21054
151148,4/13/18,2018,CofO Issued,15014-10000-05118,Bldg-Addition,Apartment,242 N CHICAGO ST,90033,2,2,002-004 units,R4-1,2044.2,34.04722,-118.21055
95948,3/7/15,2015,CofO Issued,10010-10000-00167,Bldg-New,1 or 2 Family Dwelling,717 N CRANE BLVD,90065,1,3,001 unit,R1-1,1851,34.10699,-118.211
72135,4/10/13,2013,CofO Issued,08010-10000-01295,Bldg-New,1 or 2 Family Dwelling,606 N PHEASANT DR,90065,1,3,001 unit,R1-1,1851,34.10393,-118.21124
146099,8/4/16,2016,CofO Issued,15016-70000-03447,Bldg-Alter/Repair,1 or 2 Family Dwelling,604 N CUMMINGS ST,90033,1,3,001 unit,R2-1,2036,34.05059,-118.21127
34944,3/19/13,2013,CofO Issued,05010-70000-06362,Bldg-New,1 or 2 Family Dwelling,2322 N GRIFFIN AVE,90031,2,2,002-004 units,RD2-1-HPOZ,1998,34.07266,-118.21151
105517,12/16/14,2014,CofO Issued,12010-20000-00860,Bldg-New,1 or 2 Family Dwelling,4838 N NORTH MAYWOOD AVE,90041,1,2,001 unit,R1-1,1816,34.13291,-118.21167
107353,3/25/14,2014,CofO Issued,12010-10000-01334,Bldg-New,1 or 2 Family Dwelling,717 S MOTT ST,90023,2,2,002-004 units,R2-1,2047,34.03421,-118.21169
163778,5/16/18,2018,CofO Issued,17016-10000-09264,Bldg-Alter/Repair,1 or 2 Family Dwelling,4755 E LINCOLN AVE,90042,1,,001 unit,R1-1,1834.01,34.12163,-118.21195
168041,10/16/18,2018,CofO Issued,17014-20000-01084,Bldg-Addition,Apartment,509 S MATHEWS ST,90033,1,2,001 unit,RD1.5-1-CUGU,2043,34.03841,-118.21198
163638,10/31/18,2018,CofO Issued,17010-10000-00639,Bldg-New,1 or 2 Family Dwelling,4752 E BALTIMORE ST,90042,1,2,001 unit,R1-1,1862.03,34.11885,-118.21215
163834,11/10/18,2018,CofO Issued,16010-10000-05129,Bldg-New,1 or 2 Family Dwelling,3329 N GRIFFIN AVE,90031,1,2,001 unit,[Q]RD1.5-1D,1994,34.08394,-118.21228
109849,6/17/13,2013,CofO Issued,10016-10000-18039,Bldg-Alter/Repair,Commercial,2008 E CESAR E CHAVEZ AVE,90033,2,2,002-004 units,C2-1,2044.1,34.04871,-118.2125
130562,11/23/16,2016,CofO Issued,12010-20000-00943,Bldg-New,1 or 2 Family Dwelling,423 W CANYON VISTA DR,90065,1,3,001 unit,R1-1,1851,34.0985,-118.21263
161008,11/1/18,2018,CofO Issued,15010-10000-03555,Bldg-New,Apartment,1836 N SICHEL ST,90031,27,4,020-049 units,R3-1,1999,34.06503,-118.21269
161748,3/19/18,2018,CofO Issued,17016-10000-08935,Bldg-Alter/Repair,1 or 2 Family Dwelling,178 W FRENCH AVE,90065,1,0,001 unit,RD2-1-CDO,1990,34.08871,-118.21282
45563,10/14/16,2016,CofO Issued,05010-10000-00292,Bldg-New,1 or 2 Family Dwelling,626 E FRONTENAC AVE,90065,1,3,001 unit,R1-1,1851,34.1021,-118.21285
102781,1/7/17,2017,CofO Issued,10010-10000-02463,Bldg-New,1 or 2 Family Dwelling,4357 E SAN RAFAEL AVE,90065,1,2,001 unit,R1-1,1851,34.11212,-118.21293
92099,2/24/14,2014,CofO Issued,06010-10000-05162,Bldg-New,1 or 2 Family Dwelling,620 E FRONTENAC AVE,90065,1,2,001 unit,R1-1,1851,34.10217,-118.21294
137666,8/20/16,2016,CofO Corrected,15010-10000-00321,Bldg-New,1 or 2 Family Dwelling,223 N ST LOUIS ST,90033,2,2,002-004 units,RD1.5-1,2044.1,34.04647,-118.21295
137667,8/20/16,2016,CofO Issued,15010-10000-00322,Bldg-New,1 or 2 Family Dwelling,221 N ST LOUIS ST,90033,2,2,002-004 units,RD1.5-1,2044.1,34.04605,-118.21304
108380,9/26/13,2013,CofO Issued,12010-10000-02020,Bldg-New,1 or 2 Family Dwelling,637 N SAN BENITO ST,90033,2,2,002-004 units,R3-1,2036,34.05198,-118.21304
81187,9/19/14,2014,CofO Issued,03010-10000-02094,Bldg-New,1 or 2 Family Dwelling,616 E FRONTENAC AVE,90065,1,2,001 unit,R1-1,1851,34.10228,-118.21319
133774,12/29/16,2016,CofO Issued,14010-10000-03599,Bldg-New,Apartment,3526 N MARMION WAY,90065,49,4,020-049 units,[T][Q]CM-1VL,1990,34.08726,-118.21354
154362,2/28/19,2019,CofO Issued,14010-70000-03313,Bldg-New,1 or 2 Family Dwelling,406 W AVENUE 42 ,90065,1,2,001 unit,R1-1,1852.02,34.0974,-118.21357
154361,1/27/19,2019,CofO Issued,14010-70000-03314,Bldg-New,1 or 2 Family Dwelling,412 W AVENUE 42 ,90065,1,2,001 unit,R1-1,1852.02,34.09753,-118.2137
143198,9/8/17,2017,CofO Issued,15016-10000-04543,Bldg-Alter/Repair,1 or 2 Family Dwelling,2150 W RIDGEVIEW AVE,90041,1,1,001 unit,R1-1,1816,34.13043,-118.21392
163731,3/19/18,2018,CofO Issued,17010-10000-01466,Bldg-New,1 or 2 Family Dwelling,2125 W ADDISON WAY,90041,1,1,001 unit,R1-1,1816,34.13404,-118.21395
131899,3/23/15,2015,CofO Issued,14016-70000-21967,Bldg-Alter/Repair,1 or 2 Family Dwelling,1173 S CAMULOS ST,90023,1,1,001 unit,R2-1,2047,34.02594,-118.21396
62060,8/15/14,2014,CofO Issued,06010-40000-04438,Bldg-New,1 or 2 Family Dwelling,2654 E 7TH ST,90023,1,2,001 unit,R2-1,2047,34.03079,-118.21405
161182,2/2/19,2019,CofO Issued,16010-10000-03044,Bldg-New,1 or 2 Family Dwelling,4674 E YORK BLVD,90041,1,2,001 unit,RD3-1,1834.02,34.12268,-118.21412
155346,7/22/17,2017,CofO Issued,16010-10000-01962,Bldg-New,1 or 2 Family Dwelling,4655 E LINCOLN AVE,90041,2,2,002-004 units,RD3-1,1834.02,34.12214,-118.21453
170635,3/7/19,2019,CofO Issued,17010-10000-03097,Bldg-New,1 or 2 Family Dwelling,2139 W YOSEMITE DR,90041,2,2,002-004 units,RD1.5-1,1814,34.13508,-118.21456
163533,2/23/19,2019,CofO Issued,16014-10000-05881,Bldg-Addition,1 or 2 Family Dwelling,2110 E 3RD ST,90033,1,1,001 unit,RD2-1-CUGU,2044.2,34.04283,-118.2146
92456,5/9/13,2013,CofO Issued,10014-10000-04224,Bldg-Addition,Commercial,1506 N HAZELWOOD AVE,90041,2,1,002-004 units,[Q]C4-1XL,1834,34.12333,-118.21474
107074,6/10/13,2013,CofO Issued,12014-10000-03223,Bldg-Addition,1 or 2 Family Dwelling,657 S SOTO ST,90023,1,1,001 unit,[Q]C1-1,2046,34.03614,-118.21478
109620,7/30/13,2013,CofO Issued,12016-10000-25223,Bldg-Alter/Repair,1 or 2 Family Dwelling,653 S SOTO ST,90023,1,1,001 unit,[Q]C1-1,2046,34.03626,-118.21478
22932,6/20/14,2014,CofO Issued,05010-70000-00640,Bldg-New,1 or 2 Family Dwelling,3825 N GLENALBYN DR,90065,1,1,001 unit,R1-1,1852.02,34.09332,-118.2148
159618,1/1/18,2018,CofO Issued,17016-10000-03066,Bldg-Alter/Repair,1 or 2 Family Dwelling,982 N ONEONTA DR,90065,1,,001 unit,R1-1,1862.03,34.11500,-118.21484
151558,8/22/18,2018,CofO Issued,15010-10000-02335,Bldg-New,1 or 2 Family Dwelling,4668 E SAN ANDREAS AVE,90065,1,2,001 unit,R1-1,1851,34.11001,-118.21516
145381,1/7/17,2017,CofO Issued,13010-10000-04186,Bldg-New,1 or 2 Family Dwelling,3814 N GLENALBYN DR,90065,1,1,001 unit,R1-1,1852.02,34.09347,-118.21525
155524,12/2/17,2017,CofO Issued,16010-30000-03176,Bldg-New,1 or 2 Family Dwelling,1552 N AVENUE 46 ,90041,1,2,001 unit,R1-1,1834.02,34.12476,-118.21545
51011,2/23/15,2015,CofO Issued,06010-10000-02959,Bldg-New,1 or 2 Family Dwelling,924 N ONEONTA DR,90065,1,2,001 unit,R1-1,1862,34.11349,-118.21582
136338,11/18/16,2016,CofO Issued,14010-10000-00886,Bldg-New,1 or 2 Family Dwelling,344 W ISABEL ST,90065,1,1,001 unit,R1-1-CDO,1852.02,34.08949,-118.21586
116374,1/13/14,2014,CofO Issued,13014-20000-00777,Bldg-Addition,1 or 2 Family Dwelling,2140 N VALLEJO ST,90031,1,2,001 unit,RD1.5-1-HPOZ,1997,34.07061,-118.21588
128489,3/4/16,2016,CofO Issued,14010-10000-00187,Bldg-New,1 or 2 Family Dwelling,2224 W YOSEMITE DR,90041,1,3,001 unit,RD1.5-1,1816,34.13519,-118.21608
128519,3/5/16,2016,CofO Issued,14010-10000-00196,Bldg-New,1 or 2 Family Dwelling,2224 W YOSEMITE DR,90041,1,2,001 unit,RD1.5-1,1816,34.13519,-118.21608
128500,3/5/16,2016,CofO Issued,14010-10000-00194,Bldg-New,1 or 2 Family Dwelling,2224 W YOSEMITE DR,90041,1,3,001 unit,RD1.5-1,1816,34.13519,-118.21608
128488,3/5/16,2016,CofO Issued,14010-10000-00192,Bldg-New,1 or 2 Family Dwelling,2224 W YOSEMITE DR,90041,1,3,001 unit,RD1.5-1,1816,34.13519,-118.21608
128518,5/27/16,2016,CofO Issued,14010-10000-00195,Bldg-New,1 or 2 Family Dwelling,2224 W YOSEMITE DR,90041,1,2,001 unit,RD1.5-1,1816,34.13519,-118.21608
128498,5/27/16,2016,CofO Issued,14010-10000-00193,Bldg-New,1 or 2 Family Dwelling,2224 W YOSEMITE DR,90041,1,3,001 unit,RD1.5-1,1816,34.13519,-118.21608
128495,7/8/16,2016,CofO Issued,14010-10000-00190,Bldg-New,1 or 2 Family Dwelling,2224 W YOSEMITE DR,90041,1,3,001 unit,RD1.5-1,1816,34.13519,-118.21608
128492,7/8/16,2016,CofO Issued,14010-10000-00188,Bldg-New,1 or 2 Family Dwelling,2224 W YOSEMITE DR,90041,1,3,001 unit,RD1.5-1,1816,34.13519,-118.21608
128496,7/8/16,2016,CofO Issued,14010-10000-00191,Bldg-New,1 or 2 Family Dwelling,2224 W YOSEMITE DR,90041,1,3,001 unit,RD1.5-1,1816,34.13519,-118.21608
128493,7/8/16,2016,CofO Issued,14010-10000-00189,Bldg-New,1 or 2 Family Dwelling,2224 W YOSEMITE DR,90041,1,3,001 unit,RD1.5-1,1816,34.13519,-118.21608
166776,2/3/18,2018,CofO Issued,16016-10000-23536,Bldg-Alter/Repair,1 or 2 Family Dwelling,1120 N EL PASO DR,90065,1,2,001 unit,R1-1,1862.01,34.11736,-118.21623
156282,10/2/18,2018,CofO Issued,16010-10000-02394,Bldg-New,1 or 2 Family Dwelling,4554 E SAN ANDREAS AVE,90065,1,3,001 unit,R1-1,1851,34.11003,-118.21633
141619,12/18/16,2016,CofO Issued,14010-10000-00433,Bldg-New,1 or 2 Family Dwelling,1108 N OLANCHA DR,90065,1,2,001 unit,R1-1,1862.03,34.11601,-118.21663
142693,3/17/18,2018,CofO Issued,14010-10000-02684,Bldg-New,1 or 2 Family Dwelling,3997 N GLENALBYN DR,90065,1,3,001 unit,R1-1,1852.02,34.09593,-118.21685
103091,7/11/13,2013,CofO Issued,11016-10000-19566,Bldg-Alter/Repair,Apartment,2112 E 6TH ST,90023,23,3,020-049 units,[Q]R5-1,2046,34.03876,-118.21692
160580,1/22/18,2018,CofO Issued,16014-10000-01825,Bldg-Addition,1 or 2 Family Dwelling,4003 E GLENALBYN DR,90065,1,2,001 unit,R1-1,1852.02,34.09636,-118.21695
137635,8/19/17,2017,CofO Issued,14010-10000-03187,Bldg-New,1 or 2 Family Dwelling,2265 W FAIR PARK AVE,90041,1,3,001 unit,RD1.5-1,1814,34.13669,-118.21698
137634,8/19/17,2017,CofO Issued,14010-10000-03188,Bldg-New,1 or 2 Family Dwelling,2265 W FAIR PARK AVE,90041,1,3,001 unit,RD1.5-1,1814,34.13669,-118.21698
137636,8/19/17,2017,CofO Issued,14010-10000-03191,Bldg-New,1 or 2 Family Dwelling,2265 W FAIR PARK AVE,90041,1,3,001 unit,RD1.5-1,1814,34.13669,-118.21698
137633,8/19/17,2017,CofO Issued,14010-10000-03189,Bldg-New,1 or 2 Family Dwelling,2265 W FAIR PARK AVE,90041,1,3,001 unit,RD1.5-1,1814,34.13669,-118.21698
137632,8/19/17,2017,CofO Issued,14010-10000-03190,Bldg-New,1 or 2 Family Dwelling,2265 W FAIR PARK AVE,90041,1,3,001 unit,RD1.5-1,1814,34.13669,-118.21698
137631,8/19/17,2017,CofO Issued,14010-10000-03193,Bldg-New,1 or 2 Family Dwelling,2265 W FAIR PARK AVE,90041,1,3,001 unit,RD1.5-1,1814,34.13669,-118.21698
137630,8/22/17,2017,CofO Issued,14010-10000-03192,Bldg-New,1 or 2 Family Dwelling,2265 W FAIR PARK AVE,90041,1,3,001 unit,RD1.5-1,1814,34.13669,-118.21698
149256,11/28/17,2017,CofO Issued,15010-20000-03529,Bldg-New,Commercial,4620 N EAGLE ROCK BLVD,90041,1,2,001 unit,[Q]C4-1XL,1834.02,34.12792,-118.21732
16366,4/7/16,2016,CofO Issued,03010-10000-04974,Bldg-New,1 or 2 Family Dwelling,429 W BEECH ST,90065,1,3,001 unit,R1-1,1852.02,34.09085,-118.21734
110770,2/28/14,2014,CofO Issued,11010-10000-02486,Bldg-New,1 or 2 Family Dwelling,2319 W LANGDALE AVE,90041,1,1,001 unit,RD1.5-1,1816,34.13033,-118.21748
150756,3/4/19,2019,CofO Issued,16016-10000-06101,Bldg-Alter/Repair,Commercial,2311 N PASADENA AVE,90031,8,0,005-009 units,[Q]C2-1XL-CDO,1990,34.07596,-118.21749
118859,1/26/16,2016,CofO Issued,13016-10000-12700,Bldg-Alter/Repair,Apartment,610 S ST LOUIS ST,90023,97,6,050-099 units,[Q]R5-1,2046,34.03862,-118.21749
141037,1/15/17,2017,CofO Issued,14010-10000-03134,Bldg-New,1 or 2 Family Dwelling,4534 E PAULHAN AVE,90041,1,1,001 unit,R2-1,1834.02,34.12610,-118.21751
79537,7/23/13,2013,CofO Issued,09010-10000-01421,Bldg-New,1 or 2 Family Dwelling,4617 E JESSICA DR,90065,1,1,001 unit,R1-1,1862,34.11323,-118.21773
153439,1/5/18,2018,CofO Issued,16016-10000-10896,Bldg-Alter/Repair,Apartment,2691 E 8TH ST,90023,2,,002-004 units,R2-1-CUGU,2047,34.0275,-118.21775
100878,2/21/13,2013,CofO Issued,11010-10000-02262,Bldg-New,1 or 2 Family Dwelling,5036 N ELLENWOOD DR,90041,1,3,001 unit,RD1.5-1,1814,34.13856,-118.21785
100874,2/21/13,2013,CofO Issued,11010-10000-02247,Bldg-New,1 or 2 Family Dwelling,5036 N ELLENWOOD DR,90041,1,3,001 unit,RD1.5-1,1814,34.13856,-118.21785
101203,2/21/13,2013,CofO Issued,11010-10000-02249,Bldg-New,1 or 2 Family Dwelling,5036 N ELLENWOOD DR,90041,1,3,001 unit,RD1.5-1,1814,34.13856,-118.21785
100875,2/21/13,2013,CofO Issued,11010-10000-02248,Bldg-New,1 or 2 Family Dwelling,5036 N ELLENWOOD DR,90041,1,3,001 unit,RD1.5-1,1814,34.13856,-118.21785
100876,2/21/13,2013,CofO Issued,11010-10000-02260,Bldg-New,1 or 2 Family Dwelling,5036 N ELLENWOOD DR,90041,1,3,001 unit,RD1.5-1,1814,34.13856,-118.21785
100877,2/21/13,2013,CofO Issued,11010-10000-02261,Bldg-New,1 or 2 Family Dwelling,5036 N ELLENWOOD DR,90041,1,3,001 unit,RD1.5-1,1814,34.13856,-118.21785
101205,2/21/13,2013,CofO Corrected,11010-10000-02259,Bldg-New,1 or 2 Family Dwelling,5036 N ELLENWOOD DR,90041,1,3,001 unit,RD1.5-1,1814,34.13856,-118.21785
99987,2/26/13,2013,CofO Issued,11010-10000-02254,Bldg-New,1 or 2 Family Dwelling,5036 N ELLENWOOD DR,90041,1,3,001 unit,RD1.5-1,1814,34.13856,-118.21785
99989,2/26/13,2013,CofO Issued,11010-10000-02255,Bldg-New,1 or 2 Family Dwelling,5036 N ELLENWOOD DR,90041,1,3,001 unit,RD1.5-1,1814,34.13856,-118.21785
141707,5/14/16,2016,CofO Issued,15010-10000-02289,Bldg-New,1 or 2 Family Dwelling,516 N ECHANDIA ST,90033,2,2,002-004 units,RD1.5-1-RIO,2035,34.05215,-118.21837
150445,3/17/18,2018,CofO Issued,15010-10000-02379,Bldg-New,1 or 2 Family Dwelling,4468 E MONT EAGLE PL,90041,1,2,001 unit,R1-1,1862.01,34.11914,-118.2184
105033,4/21/15,2015,CofO Issued,11014-10000-01671,Bldg-Addition,1 or 2 Family Dwelling,1541 E BRIDGE ST,90033,1,1,001 unit,RD1.5-1,2035,34.05303,-118.2188
109414,2/19/16,2016,CofO Issued,12014-20000-02888,Bldg-Addition,Apartment,4439 E ALUMNI AVE,90041,2,2,002-004 units,RD1.5-1,1862.01,34.12476,-118.21908
94661,7/9/16,2016,CofO Issued,09016-10000-16407,Bldg-Alter/Repair,Commercial,1910 N NORTH MAIN ST,90031,10,2,010-019 units,M3-1,1997,34.06601,-118.21909
13639,5/27/15,2015,CofO Issued,04010-10000-01611,Bldg-New,1 or 2 Family Dwelling,1028 N OBAN DR,90065,1,2,001 unit,R1-1,1862,34.11441,-118.21917
78569,2/4/14,2014,CofO Issued,09016-10000-11689,Bldg-Alter/Repair,1 or 2 Family Dwelling,128 S BOYLE AVE,90033,1,,001 unit,[Q]R4-1,2060.4,34.04641,-118.21963
161323,5/6/17,2017,CofO Issued,03010-10000-00454,Bldg-New,1 or 2 Family Dwelling,119 N BOYLE AVE,90033,1,1,001 unit,RD1.5-1,2035,34.04827,-118.21968
153065,5/16/18,2018,CofO Issued,15010-10000-04627,Bldg-New,1 or 2 Family Dwelling,1008 N OBAN DR,90065,1,2,001 unit,R1-1,1862.03,34.11435,-118.21968
126291,2/11/18,2018,CofO Issued,14014-10000-02621,Bldg-Addition,1 or 2 Family Dwelling,1501 E CESAR E CHAVEZ AVE,90033,1,0,001 unit,RD1.5-1,2035,34.05246,-118.22005
133650,9/27/17,2017,CofO Issued,14010-10000-03240,Bldg-New,Commercial,117 S BOYLE AVE,90033,80,4,050-099 units,C2-1-RIO,2060.32,34.04687,-118.22011
145695,2/19/19,2019,CofO Issued,14016-10000-16441,Bldg-Alter/Repair,Apartment,2455 W COLORADO BLVD,90041,9,,005-009 units,[Q]C4-2D,1810,34.14126,-118.22043
125664,5/19/16,2016,CofO Issued,13010-20000-02868,Bldg-New,1 or 2 Family Dwelling,1402 N PRISM DR,90041,1,3,001 unit,RD1.5-1,1862.01,34.12215,-118.22059
125668,7/9/16,2016,CofO Issued,13010-20000-02872,Bldg-New,1 or 2 Family Dwelling,1410 N PRISM DR,90041,1,3,001 unit,RD1.5-1,1862.01,34.12211,-118.22060
117594,6/30/15,2015,CofO Issued,13010-10000-01596,Bldg-New,1 or 2 Family Dwelling,4327 E MONT EAGLE PL,90041,1,2,001 unit,R1-1,1862.01,34.12026,-118.22073
125679,7/9/16,2016,CofO Issued,13010-20000-02871,Bldg-New,1 or 2 Family Dwelling,1407 N PRISM DR,90041,1,3,001 unit,RD1.5-1,1862.01,34.12218,-118.22074
59904,10/17/13,2013,CofO Issued,03010-10000-04898,Bldg-New,1 or 2 Family Dwelling,3708 E DIVISION ST,90065,1,3,001 unit,RE20-1,1862,34.11087,-118.22078
125669,7/9/16,2016,CofO Issued,13010-20000-02873,Bldg-New,1 or 2 Family Dwelling,1411 N PRISM DR,90041,1,3,001 unit,RD1.5-1,1862.01,34.12227,-118.2208
125670,7/9/16,2016,CofO Issued,13010-20000-02874,Bldg-New,1 or 2 Family Dwelling,1415 N PRISM DR,90041,1,3,001 unit,RD1.5-1,1862.01,34.12231,-118.22082
125671,7/9/16,2016,CofO Issued,13010-20000-02875,Bldg-New,1 or 2 Family Dwelling,1418 N PRISM DR,90041,1,3,001 unit,RD1.5-1,1862.01,34.12246,-118.22084
162450,9/25/17,2017,CofO Issued,17010-10000-01491,Bldg-New,1 or 2 Family Dwelling,3202 N HURON ST,90065,1,1,001 unit,RD2-1-CDO-RIO,1853.2,34.08605,-118.22087
125673,7/9/16,2016,CofO Issued,13010-20000-02877,Bldg-New,1 or 2 Family Dwelling,1422 N PRISM DR,90041,1,3,001 unit,RD1.5-1,1862.01,34.12254,-118.2209
125672,7/9/16,2016,CofO Issued,13010-20000-02876,Bldg-New,1 or 2 Family Dwelling,1419 N PRISM DR,90041,1,3,001 unit,RD1.5-1,1862.01,34.12242,-118.22092
125675,11/13/18,2018,CofO Issued,13010-20000-02879,Bldg-New,1 or 2 Family Dwelling,1426 N PRISM DR,90041,1,3,001 unit,RD1.5-1,1862.01,34.12263,-118.22093
125677,7/9/16,2016,CofO Issued,13010-20000-02881,Bldg-New,1 or 2 Family Dwelling,1430 N PRISM DR,90041,1,3,001 unit,RD1.5-1,1862.01,34.12267,-118.22095
137276,8/10/16,2016,CofO Issued,14010-10000-03315,Bldg-New,1 or 2 Family Dwelling,4153 N PALMERO DR,90065,1,2,001 unit,R1-1,1862.03,34.11586,-118.22096
125674,7/9/16,2016,CofO Issued,13010-20000-02878,Bldg-New,1 or 2 Family Dwelling,1423 N PRISM DR,90041,1,3,001 unit,RD1.5-1,1862.01,34.1225,-118.22098
125676,7/9/16,2016,CofO Issued,13010-20000-02880,Bldg-New,1 or 2 Family Dwelling,1427 N PRISM DR,90041,1,3,001 unit,RD1.5-1,1862.01,34.12258,-118.22104
164992,1/9/19,2019,CofO Issued,15010-20000-02995,Bldg-New,1 or 2 Family Dwelling,4512 E BEND DR,90065,1,2,001 unit,R1-1,1862.03,34.11222,-118.22105
118032,4/27/17,2017,CofO Issued,12010-20000-02989,Bldg-New,Apartment,1529 E PLEASANT AVE,90033,3,3,002-004 units,RD1.5-1,2035,34.04891,-118.22106
125678,7/9/16,2016,CofO Issued,13010-20000-02882,Bldg-New,1 or 2 Family Dwelling,1431 N PRISM DR,90041,1,3,001 unit,RD1.5-1,1862.01,34.12261,-118.22109
117908,2/9/17,2017,CofO Corrected,12010-20000-02994,Bldg-New,Apartment,244 S AVENUE 18 ,90031,6,2,005-009 units,RD1.5-1,1997,34.07044,-118.22153
145669,7/18/18,2018,CofO Issued,14010-10000-03690,Bldg-New,1 or 2 Family Dwelling,140 S PECAN ST,90033,1,2,001 unit,RD3-1-RIO,2060.32,34.04613,-118.22167
102428,10/1/14,2014,CofO Issued,11016-10000-21991,Bldg-Alter/Repair,Apartment,4376 E YORK BLVD,90041,1,2,001 unit,RD1.5-1-CDO,1862.01,34.12443,-118.22171
159675,3/22/19,2019,CofO Issued,16010-10000-00441,Bldg-New,1 or 2 Family Dwelling,4335 N MALLOW ROAD,90041,1,3,001 unit,[Q]C2-1VL-CDO,1862.01,34.12246,-118.22184
159666,3/22/19,2019,CofO Issued,16010-10000-00440,Bldg-New,1 or 2 Family Dwelling,4333 N MALLOW ROAD,90041,1,3,001 unit,[Q]C2-1VL-CDO,1862.01,34.12244,-118.22192
159670,4/3/19,2019,CofO Issued,16010-10000-00435,Bldg-New,1 or 2 Family Dwelling,4334 N JIMSON ROAD,90041,1,3,001 unit,[Q]C2-1VL-CDO,1862.01,34.12264,-118.22197
153639,7/7/18,2018,CofO Issued,16010-10000-00426,Bldg-New,1 or 2 Family Dwelling,4335 N JIMSON ROAD,90041,1,3,001 unit,[Q]C2-1VL-CDO,1862.01,34.12278,-118.22205
153640,7/6/18,2018,CofO Issued,16010-10000-00442,Bldg-New,Commercial,4340 N EAGLE ROCK BLVD,90041,1,3,001 unit,[Q]C2-1VL-CDO,1862.01,34.12308,-118.22208
159684,3/22/19,2019,CofO Issued,16010-10000-00433,Bldg-New,1 or 2 Family Dwelling,4330 N JIMSON ROAD,90041,1,3,001 unit,[Q]C2-1VL-CDO,1862.01,34.12258,-118.2221
159673,3/22/19,2019,CofO Issued,16010-10000-00436,Bldg-New,1 or 2 Family Dwelling,4327 N MALLOW ROAD,90041,1,3,001 unit,[Q]C2-1VL-CDO,1862.01,34.12233,-118.22213
153638,7/7/18,2018,CofO Issued,16010-10000-00425,Bldg-New,1 or 2 Family Dwelling,4333 N JIMSON ROAD,90041,1,3,001 unit,[Q]C2-1VL-CDO,1862.01,34.12275,-118.22213
159681,3/22/19,2019,CofO Issued,16010-10000-00432,Bldg-New,1 or 2 Family Dwelling,4328 N JIMSON ROAD,90041,1,3,001 unit,[Q]C2-1VL-CDO,1862.01,34.12256,-118.22216
153637,6/27/18,2018,CofO Issued,16010-10000-00424,Bldg-New,1 or 2 Family Dwelling,4331 N JIMSON ROAD,90041,1,3,001 unit,[Q]C2-1VL-CDO,1862.01,34.12272,-118.2222
153634,7/6/18,2018,CofO Issued,16010-10000-00421,Bldg-New,Commercial,4334 N EAGLE ROCK BLVD,90041,1,3,001 unit,[Q]C2-1VL-CDO,1862.01,34.12301,-118.22223
153636,4/2/19,2019,CofO Issued,16010-10000-00423,Bldg-New,1 or 2 Family Dwelling,4329 N JIMSON ROAD,90041,1,3,001 unit,[Q]C2-1VL-CDO,1862.01,34.12269,-118.22226
159667,9/11/18,2018,CofO Issued,16010-10000-00416,Bldg-New,1 or 2 Family Dwelling,1543 W VERBENA WAY,90041,1,3,001 unit,[Q]C2-1VL-CDO,1862.01,34.12231,-118.22227
159669,3/22/19,2019,CofO Issued,16010-10000-00427,Bldg-New,1 or 2 Family Dwelling,4326 N JIMSON ROAD,90041,1,3,001 unit,[Q]C2-1VL-CDO,1862.01,34.1225,-118.22228
153633,7/6/18,2018,CofO Issued,16010-10000-00420,Bldg-New,Commercial,4332 N EAGLE ROCK BLVD,90041,1,3,001 unit,[Q]C2-1VL-CDO,1862.01,34.12296,-118.22228
159677,9/10/18,2018,CofO Issued,16010-10000-00415,Bldg-New,1 or 2 Family Dwelling,1545 W VERBENA WAY,90041,1,3,001 unit,[Q]C2-1VL-CDO,1862.01,34.12236,-118.22231
153635,3/5/19,2019,CofO Issued,16010-10000-00422,Bldg-New,1 or 2 Family Dwelling,4327 N JIMSON ROAD,90041,1,3,001 unit,[Q]C2-1VL-CDO,1862.01,34.12257,-118.22233
159664,9/29/18,2018,CofO Issued,16010-10000-00414,Bldg-New,1 or 2 Family Dwelling,1547 W VERBENA WAY,90041,1,3,001 unit,[Q]C2-1VL-CDO,1862.01,34.12241,-118.22234
153632,7/6/18,2018,CofO Issued,16010-10000-00419,Bldg-New,Commercial,4330 N EAGLE ROCK BLVD,90041,1,3,001 unit,[Q]C2-1VL-CDO,1862.01,34.12296,-118.22236
159665,9/11/18,2018,CofO Issued,16010-10000-00413,Bldg-New,1 or 2 Family Dwelling,1549 W VERBENA WAY,90041,1,3,001 unit,[Q]C2-1VL-CDO,1862.01,34.12246,-118.22237
153631,7/6/18,2018,CofO Issued,16010-10000-00418,Bldg-New,Commercial,4328 N EAGLE ROCK BLVD,90041,1,3,001 unit,[Q]C2-1VL-CDO,1862.01,34.12291,-118.2224
153628,7/13/18,2018,CofO Issued,16010-10000-00412,Bldg-New,1 or 2 Family Dwelling,1551 W VERBENA WAY,90041,1,3,001 unit,[Q]C2-1VL-CDO,1862.01,34.12254,-118.22242
153627,7/16/18,2018,CofO Issued,16010-10000-00411,Bldg-New,1 or 2 Family Dwelling,1553 W VERBENA WAY,90041,1,3,001 unit,[Q]C2-1VL-CDO,1862.01,34.12259,-118.22246
153630,7/13/18,2018,CofO Issued,16010-10000-00410,Bldg-New,1 or 2 Family Dwelling,1555 W VERBENA WAY,90041,1,3,001 unit,[Q]C2-1VL-CDO,1862.01,34.12264,-118.2225
153629,7/6/18,2018,CofO Issued,16010-10000-00417,Bldg-New,Commercial,4326 N EAGLE ROCK BLVD,90041,1,3,001 unit,[Q]C2-1VL-CDO,1862.01,34.12286,-118.22252
153626,7/7/18,2018,CofO Issued,16010-10000-00409,Bldg-New,1 or 2 Family Dwelling,1557 W VERBENA WAY,90041,1,3,001 unit,[Q]C2-1VL-CDO,1862.01,34.12269,-118.22253
153625,7/13/18,2018,CofO Issued,16010-10000-00408,Bldg-New,1 or 2 Family Dwelling,1559 W VERBENA WAY,90041,1,3,001 unit,[Q]C2-1VL-CDO,1862.01,34.12274,-118.22257
101573,9/17/13,2013,CofO Issued,11010-10000-00385,Bldg-New,1 or 2 Family Dwelling,4243 N SCANDIA WAY,90065,1,3,001 unit,RE11-1,1862.02,34.12009,-118.22261
101572,9/17/13,2013,CofO Issued,11010-10000-00384,Bldg-New,1 or 2 Family Dwelling,4239 N SCANDIA WAY,90065,1,3,001 unit,RE11-1,1862.02,34.11991,-118.22268
153624,7/6/18,2018,CofO Issued,16010-10000-00407,Bldg-New,Commercial,4320 N EAGLE ROCK BLVD,90041,1,3,001 unit,[Q]C2-1VL-CDO,1862.01,34.12279,-118.22268
117609,5/28/15,2015,CofO Issued,13010-10000-00132,Bldg-New,1 or 2 Family Dwelling,4238 N SCANDIA WAY,90065,1,2,001 unit,RE11-1,1862.02,34.11967,-118.22274
118044,8/3/15,2015,CofO Issued,10010-10000-00426,Bldg-New,1 or 2 Family Dwelling,2601 W HYLER AVE,90041,1,3,001 unit,R1-1,1861,34.12835,-118.22278
101561,9/17/13,2013,CofO Issued,11010-10000-00383,Bldg-New,1 or 2 Family Dwelling,4235 N SCANDIA WAY,90065,1,3,001 unit,RE11-1,1862.02,34.11979,-118.22284
117610,5/28/15,2015,CofO Issued,13010-10000-00131,Bldg-New,1 or 2 Family Dwelling,4234 N SCANDIA WAY,90065,1,2,001 unit,RE11-1,1862.02,34.11957,-118.22288
101569,9/20/13,2013,CofO Issued,11010-10000-00386,Bldg-New,1 or 2 Family Dwelling,4231 N SCANDIA WAY,90065,1,3,001 unit,RE11-1,1862.02,34.11979,-118.22292
129788,11/19/15,2015,CofO Issued,14010-10000-01346,Bldg-New,1 or 2 Family Dwelling,4036 N YORK HILL PL,90041,1,2,001 unit,R1-1,1861,34.12609,-118.22296
95090,1/15/13,2013,CofO Issued,09010-10000-02364,Bldg-New,1 or 2 Family Dwelling,4330 E YORK BLVD,90041,1,2,001 unit,R1-1-CDO,1862,34.12467,-118.22328
112867,8/24/15,2015,CofO Issued,12010-10000-02465,Bldg-New,Apartment,4260 N EAGLE ROCK BLVD,90041,56,5,050-099 units,[Q]C2-1VL-CDO,1862.01,34.12246,-118.22336
36908,11/23/15,2015,CofO Issued,05010-10000-03966,Bldg-New,1 or 2 Family Dwelling,4221 N SCANDIA WAY,90065,1,2,001 unit,RE11-1,1862,34.11992,-118.22345
133512,3/23/16,2016,CofO Issued,13010-10000-04349,Bldg-New,1 or 2 Family Dwelling,2802 N GAY ST,90065,2,2,002-004 units,RD2-1-CDO,1853.2,34.0882,-118.22351
134557,3/23/16,2016,CofO Issued,13010-10000-04348,Bldg-New,1 or 2 Family Dwelling,629 E AVENUE 28 ,90065,1,2,001 unit,RD2-1-CDO,1853.2,34.08808,-118.22366
119783,12/31/18,2018,CofO Issued,13016-10000-13734,Bldg-Alter/Repair,Apartment,1508 E 1ST ST,90033,3,2,002-004 units,[Q]M1-1,2060.32,34.04732,-118.2237
106764,3/18/15,2015,CofO Issued,12016-10000-06892,Bldg-Alter/Repair,Apartment,1734 N NORTH MAIN ST,90031,9,3,005-009 units,M3-1,1997,34.06726,-118.22377
103147,1/30/13,2013,CofO Issued,11010-10000-01854,Bldg-New,1 or 2 Family Dwelling,4009 N DIVISION ST,90065,1,2,001 unit,R1-1,1863,34.11535,-118.22426
129759,6/3/16,2016,CofO Issued,14010-10000-01645,Bldg-New,1 or 2 Family Dwelling,2705 W LYTELLE PL,90041,1,2,001 unit,R1-1,1861,34.1259,-118.22457
128384,3/28/17,2017,CofO Issued,12010-10000-02120,Bldg-New,1 or 2 Family Dwelling,3835 N CAZADOR ST,90065,1,2,001 unit,RE20-1,1863.02,34.11222,-118.22501
137685,10/4/17,2017,CofO Issued,14010-10000-00945,Bldg-New,1 or 2 Family Dwelling,3927 N BARRYKNOLL DR,90065,1,3,001 unit,RE11-1,1863.02,34.11569,-118.22501
132163,10/17/17,2017,CofO Issued,14010-10000-01614,Bldg-New,1 or 2 Family Dwelling,3933 N BARRYKNOLL DR,90065,1,3,001 unit,RE11-1,1863.02,34.11581,-118.22506
133690,11/14/17,2017,CofO Issued,14010-10000-01211,Bldg-New,1 or 2 Family Dwelling,3941 N BARRYKNOLL DR,90065,1,3,001 unit,RE11-1,1863.02,34.11605,-118.22515
124574,3/18/17,2017,CofO Issued,13010-10000-03621,Bldg-New,1 or 2 Family Dwelling,3625 E TACOMA AVE,90065,1,2,001 unit,R1-1,1852.04,34.09931,-118.22538
125195,4/27/16,2016,CofO Corrected,14014-10000-00605,Bldg-Addition,1 or 2 Family Dwelling,2671 E MACEO ST,90065,1,1,001 unit,R1-1-CDO,1853.2,34.09281,-118.22613
123965,4/14/15,2015,CofO Issued,13010-10000-00846,Bldg-New,1 or 2 Family Dwelling,1631 N BRIDGEPORT DR,90065,1,2,001 unit,R1-1,1852.04,34.10216,-118.22623
114995,10/4/17,2017,CofO Issued,10010-10000-00572,Bldg-New,1 or 2 Family Dwelling,2555 N SUNDOWN DR,90065,1,2,001 unit,R1-1,1863.02,34.11493,-118.2263
123957,4/14/15,2015,CofO Issued,13010-10000-00845,Bldg-New,1 or 2 Family Dwelling,1637 N BRIDGEPORT DR,90065,1,2,001 unit,R1-1,1852.04,34.10224,-118.2264
89988,1/8/13,2013,CofO Issued,10010-10000-00261,Bldg-New,1 or 2 Family Dwelling,1640 N BRIDGEPORT DR,90065,1,2,001 unit,R1-1,1852.01,34.10215,-118.2265
136869,9/29/18,2018,CofO Issued,14010-10000-00079,Bldg-New,1 or 2 Family Dwelling,3754 N BRILLIANT DR,90065,1,2,001 unit,RE20-1,1863.02,34.11224,-118.22658
136889,9/29/18,2018,CofO Issued,14010-10000-00084,Bldg-New,1 or 2 Family Dwelling,3756 N BRILLIANT DR,90065,1,2,001 unit,RE20-1,1863.02,34.11236,-118.22658
136888,9/29/18,2018,CofO Issued,14010-10000-00081,Bldg-New,1 or 2 Family Dwelling,3762 N BRILLIANT DR,90065,1,3,001 unit,RE20-1,1863.02,34.11247,-118.22658
136862,9/29/18,2018,CofO Issued,14010-10000-00078,Bldg-New,1 or 2 Family Dwelling,3750 N BRILLIANT DR,90065,1,2,001 unit,RE20-1,1863.02,34.11212,-118.22659
136887,9/29/18,2018,CofO Issued,14010-10000-00082,Bldg-New,1 or 2 Family Dwelling,3766 N BRILLIANT DR,90065,1,3,001 unit,RE20-1,1863.02,34.11258,-118.2266
143090,8/9/17,2017,CofO Issued,14010-10000-02920,Bldg-New,Apartment,4121 N EAGLE ROCK BLVD,90065,46,4,020-049 units,[Q]C2-1VL-CDO,1862.02,34.12142,-118.22666
129446,3/19/18,2018,CofO Issued,14010-10000-00486,Bldg-New,1 or 2 Family Dwelling,2034 N ROME DR,90065,1,2,001 unit,R1-1,1863.02,34.1064,-118.22675
47481,7/1/16,2016,CofO Issued,06010-10000-01662,Bldg-New,1 or 2 Family Dwelling,4041 W AVENUE 42 ,90065,1,2,001 unit,R1-1,1861,34.12531,-118.22679
117331,11/18/14,2014,CofO Issued,13010-10000-01096,Bldg-New,1 or 2 Family Dwelling,4117 W AVENUE 42 ,90065,1,2,001 unit,R1-1,1861,34.12606,-118.22705
34306,6/30/15,2015,CofO Issued,05010-10000-02882,Bldg-New,1 or 2 Family Dwelling,1428 N CLIFF DR,90065,1,2,001 unit,RE20-1,1852.01,34.09922,-118.22804
140439,2/20/18,2018,CofO Issued,15014-20000-00498,Bldg-Alter/Repair,1 or 2 Family Dwelling,3642 E PARRISH AVE,90065,1,2,001 unit,RE20-1,1863.02,34.11071,-118.22806
94123,9/19/13,2013,CofO Issued,09010-20000-02196,Bldg-New,1 or 2 Family Dwelling,3851 N SUNBEAM DR,90065,1,3,001 unit,R1-1,1863.02,34.11735,-118.22813
109570,4/8/13,2013,CofO Issued,12014-20000-02321,Bldg-Addition,1 or 2 Family Dwelling,5273 N EAGLE DALE AVE,90041,1,0,001 unit,RD1.5-1,1813,34.14479,-118.22828
156032,8/24/18,2018,CofO Issued,15010-10000-03759,Bldg-New,1 or 2 Family Dwelling,1620 N KILBOURN ST,90065,1,3,001 unit,R1-1,1852.04,34.10118,-118.22837
124543,7/7/16,2016,CofO Issued,13010-10000-03686,Bldg-New,Commercial,1225 N CYPRESS AVE,90065,1,2,001 unit,[Q]C4-1XL-CDO,1853.1,34.09585,-118.22841
34770,10/25/15,2015,CofO Issued,05010-70000-00189,Bldg-New,1 or 2 Family Dwelling,3614 E PARRISH AVE,90065,1,3,001 unit,RE20-1,1863,34.10986,-118.22861
34739,10/25/15,2015,CofO Issued,05010-70000-00190,Bldg-New,1 or 2 Family Dwelling,3606 E PARRISH AVE,90065,1,3,001 unit,RE20-1,1863,34.10986,-118.22861
34795,10/25/15,2015,CofO Issued,05010-70000-00184,Bldg-New,1 or 2 Family Dwelling,3610 E PARRISH AVE,90065,1,3,001 unit,RE20-1,1863,34.10986,-118.22861
34753,11/23/15,2015,CofO Issued,05010-70000-00191,Bldg-New,1 or 2 Family Dwelling,3604 E PARRISH AVE,90065,1,3,001 unit,RE20-1,1863,34.10986,-118.22861
34751,11/23/15,2015,CofO Issued,05010-70000-00187,Bldg-New,1 or 2 Family Dwelling,3620 E PARRISH AVE,90065,1,3,001 unit,RE20-1,1863,34.10986,-118.22861
34775,11/23/15,2015,CofO Issued,05010-70000-00186,Bldg-New,1 or 2 Family Dwelling,3624 E PARRISH AVE,90065,1,3,001 unit,RE20-1,1863,34.10986,-118.22861
34785,1/5/16,2016,CofO Issued,05010-70000-00185,Bldg-New,1 or 2 Family Dwelling,3628 E PARRISH AVE,90065,1,3,001 unit,RE20-1,1863,34.10986,-118.22861
34759,2/24/17,2017,CofO Issued,05010-70000-00188,Bldg-New,1 or 2 Family Dwelling,3618 E PARRISH AVE,90065,1,3,001 unit,RE20-1,1863,34.10986,-118.22861
98969,3/4/14,2014,CofO Issued,11010-10000-01491,Bldg-New,1 or 2 Family Dwelling,2230 N OROS ST,90031,1,2,001 unit,R1-1VL,1972,34.08638,-118.22881
110470,9/4/13,2013,CofO Issued,12016-10000-03494,Bldg-Alter/Repair,Apartment,2637 E ALICE ST,90065,1,1,001 unit,RD3-1-CDO,1853.2,34.09443,-118.22892
148491,10/3/18,2018,CofO Issued,15010-10000-03239,Bldg-New,1 or 2 Family Dwelling,3628 N KINNEY CIR,90065,1,3,001 unit,R1-1,1863.02,34.11389,-118.22911
148349,10/3/18,2018,CofO Issued,15010-10000-03238,Bldg-New,1 or 2 Family Dwelling,3624 N KINNEY CIR,90065,1,3,001 unit,R1-1,1863.02,34.11379,-118.22918
148494,10/3/18,2018,CofO Issued,15010-10000-03237,Bldg-New,1 or 2 Family Dwelling,3620 N KINNEY CIR,90065,1,3,001 unit,R1-1,1863.02,34.11376,-118.22921
140413,11/17/15,2015,CofO Issued,12016-10000-17612,Bldg-Alter/Repair,Commercial,1200 S SANTA FE AVE,90021,53,0,050-099 units,M3-1,2060.31,34.02943,-118.22978
119114,5/15/15,2015,CofO Issued,12010-70000-02581,Bldg-New,1 or 2 Family Dwelling,2359 E 108TH ST,90059,1,2,001 unit,R1-1,2430,33.93703,-118.22983
123062,9/14/15,2015,CofO Issued,11010-10000-01390,Bldg-New,Apartment,3945 N EAGLE ROCK BLVD,90065,8,3,005-009 units,[Q]RAS3-1VL-CDO,1863.02,34.12007,-118.22985
134196,10/8/15,2015,CofO Issued,15010-70000-00376,Bldg-New,1 or 2 Family Dwelling,2216 N DUVALL ST,90031,1,2,001 unit,R1-1VL-RIO,1972,34.08664,-118.22991
155793,1/8/18,2018,CofO Issued,16010-70000-03373,Bldg-New,1 or 2 Family Dwelling,10747 S WEIGAND AVE,90059,1,1,001 unit,R1-1,2430,33.93754,-118.23013
180121,2/4/19,2019,CofO Issued,17016-10000-36893,Bldg-Alter/Repair,Apartment,474 W CASANOVA ST,90012,2,0,002-004 units,RD2-1VL,2060.1,34.07331,-118.23013
123059,9/14/15,2015,CofO Issued,11010-10000-01389,Bldg-New,Apartment,3943 N EAGLE ROCK BLVD,90065,4,3,002-004 units,[Q]RAS3-1VL-CDO,1863.02,34.1201,-118.23017
157343,11/28/17,2017,CofO Issued,15010-10000-02599,Bldg-New,1 or 2 Family Dwelling,3309 E ISABEL DR,90065,2,2,002-004 units,R2-1,1852.03,34.10397,-118.23032
123058,11/4/15,2015,CofO Issued,11010-10000-01388,Bldg-New,Apartment,3941 N EAGLE ROCK BLVD,90065,4,3,002-004 units,[Q]RAS3-1VL-CDO,1863.02,34.11994,-118.23045
147206,6/29/17,2017,CofO Issued,14010-10000-03654,Bldg-New,1 or 2 Family Dwelling,10850 S WEIGAND AVE,90059,1,2,001 unit,R1-1,2430,33.93559,-118.23051
105297,8/19/15,2015,CofO Corrected,12016-10000-04857,Bldg-Alter/Repair,Commercial,2349 S SANTA FE AVE,90058,2,1,002-004 units,M3-1,2060.5,34.0162,-118.23051
115294,9/14/15,2015,CofO Issued,11010-10000-01386,Bldg-New,Apartment,3921 N EAGLE ROCK BLVD,90065,9,3,005-009 units,[Q]RAS3-1VL-CDO,1863.02,34.11962,-118.23051
142292,5/11/16,2016,CofO Issued,15016-10000-20138,Bldg-Alter/Repair,1 or 2 Family Dwelling,4560 W ROUND TOP DR,90065,1,1,001 unit,R1-1-CDO,1861,34.13493,-118.23058
123057,9/29/15,2015,CofO Issued,11010-10000-01387,Bldg-New,Apartment,3931 N EAGLE ROCK BLVD,90065,2,3,002-004 units,[Q]RAS3-1VL-CDO,1863.02,34.1198,-118.23063
122601,2/19/15,2015,CofO Issued,14010-10000-00042,Bldg-New,1 or 2 Family Dwelling,3625 N KINNEY ST,90065,1,2,001 unit,RE11-1,1863.02,34.11494,-118.2307
114132,3/7/14,2014,CofO Corrected,13010-10000-01293,Bldg-New,1 or 2 Family Dwelling,2311 E 108TH ST,90059,1,1,001 unit,R1-1,2430,33.93721,-118.23072
114130,2/14/14,2014,CofO Issued,13010-10000-01292,Bldg-New,1 or 2 Family Dwelling,2309 E 108TH ST,90059,1,1,001 unit,R1-1,2430,33.93724,-118.2308
94262,4/19/13,2013,CofO Issued,05016-10000-03699,Bldg-Alter/Repair,Apartment,2038 E BAY ST,90021,4,2,002-004 units,M3-1,2060.5,34.0313,-118.23081
125049,12/9/16,2016,CofO Issued,11014-10000-02259,Bldg-Addition,1 or 2 Family Dwelling,489 W SOLANO AVE,90012,1,2,001 unit,RD2-1VL,2060.1,34.07342,-118.23101
162126,5/12/18,2018,CofO Issued,16010-10000-04354,Bldg-New,1 or 2 Family Dwelling,2452 E SHOREDALE AVE,90031,1,2,001 unit,R1-1VL-RIO,1972,34.09157,-118.23123
152260,2/27/17,2017,CofO Issued,16010-30000-02969,Bldg-New,1 or 2 Family Dwelling,10826 S GORMAN AVE,90059,1,1,001 unit,R1-1,2430,33.93646,-118.23128
123056,9/14/15,2015,CofO Issued,11010-10000-01385,Bldg-New,Apartment,3901 N EAGLE ROCK BLVD,90065,16,3,010-019 units,[Q]RAS3-1VL-CDO,1863.02,34.11928,-118.23133
141495,5/22/18,2018,CofO Issued,15010-20000-01471,Bldg-New,1 or 2 Family Dwelling,3577 N KINNEY ST,90065,1,1,001 unit,RE11-1,1863.02,34.11403,-118.23141
166609,6/27/18,2018,CofO Issued,17010-10000-02683,Bldg-New,1 or 2 Family Dwelling,2253 N ELMGROVE ST,90031,1,1,001 unit,R1-1VL-RIO,1972,34.08672,-118.23152
149759,5/15/17,2017,CofO Issued,16010-70000-01259,Bldg-New,1 or 2 Family Dwelling,10350 S KALMIA ST,90002,1,2,001 unit,R1-1,2430,33.94159,-118.23161
130093,8/14/17,2017,CofO Issued,14010-10000-01588,Bldg-New,Apartment,2590 E ARVIA ST,90031,108,4,100-199 units,[Q]CM-1-CDO,1871.02,34.09469,-118.23162
109766,10/16/14,2014,CofO Issued,11010-10000-01893,Bldg-New,Apartment,1311 N SAN FERNANDO ROAD,90065,16,3,010-019 units,[Q]CM-1-CDO,1871.02,34.09598,-118.23163
109768,10/16/14,2014,CofO Issued,11010-10000-01894,Bldg-New,Apartment,1311 N SAN FERNANDO ROAD,90065,16,3,010-019 units,[Q]CM-1-CDO,1871.02,34.09598,-118.23163
109765,10/16/14,2014,CofO Issued,11010-10000-01892,Bldg-New,Apartment,1311 N SAN FERNANDO ROAD,90065,36,3,020-049 units,[Q]CM-1-CDO,1871.02,34.09598,-118.23163
149764,5/15/17,2017,CofO Issued,16010-70000-01257,Bldg-New,1 or 2 Family Dwelling,10350 S KALMIA ST,90002,1,2,001 unit,R1-1,2430,33.94237,-118.23171
24563,4/27/15,2015,CofO Issued,03016-10000-08799,Bldg-Alter/Repair,Commercial,654 S MATEO ST,90021,21,3,020-049 units,M3-1,2060.5,34.03639,-118.23236
115292,9/14/15,2015,CofO Issued,11010-10000-01383,Bldg-New,Apartment,3801 N EAGLE ROCK BLVD,90065,9,3,005-009 units,[Q]RAS3-1VL-CDO,1863.02,34.11866,-118.23238
99485,3/12/15,2015,CofO Issued,11010-10000-01774,Bldg-New,Commercial,330 S SANTA FE AVE,90012,438,6,200+ units,(T)(Q)C2-2D,2060.31,34.04488,-118.23238
93109,1/8/14,2014,CofO Issued,09010-10000-02323,Bldg-New,1 or 2 Family Dwelling,3093 E KNOB DR,90065,1,3,001 unit,R1-1,1852.03,34.10309,-118.23247
109812,5/18/15,2015,CofO Issued,12010-10000-01922,Bldg-New,Apartment,1515 N SAN FERNANDO ROAD,90031,87,3,050-099 units,[Q]CM-1-CDO,1871.02,34.09631,-118.23259
139803,5/14/16,2016,CofO Issued,15010-30000-02372,Bldg-New,1 or 2 Family Dwelling,10348 S JUNIPER ST,90002,1,1,001 unit,R1-1,2430,33.94174,-118.23265
140182,8/8/16,2016,CofO Issued,14010-10000-00453,Bldg-New,1 or 2 Family Dwelling,3406 N THE PASEO ,90065,1,2,001 unit,R1-1,1863.02,34.11165,-118.23306
97619,4/4/13,2013,CofO Issued,11010-10000-00997,Bldg-New,1 or 2 Family Dwelling,1911 N ISABEL ST,90065,1,2,001 unit,R1-1,1852.01,34.10134,-118.23315
143280,12/14/18,2018,CofO Issued,14010-10000-02759,Bldg-New,1 or 2 Family Dwelling,2269 N CAZADOR DR,90065,1,3,001 unit,R2-1,1864.04,34.10735,-118.23342
135106,10/19/16,2016,CofO Issued,10010-20000-00097,Bldg-New,1 or 2 Family Dwelling,2653 W AVENUE 35 ,90065,1,1,001 unit,R1-1,1863.02,34.11362,-118.23367
135109,2/3/18,2018,CofO Issued,10010-20000-00099,Bldg-New,1 or 2 Family Dwelling,2657 W AVENUE 35 ,90065,1,1,001 unit,R1-1,1863.02,34.11371,-118.23375
3269,2/21/18,2018,CofO Issued,04016-10000-17735,Bldg-Alter/Repair,Commercial,530 S MOLINO ST,90013,30,3,020-049 units,M3-1,2060.5,34.04177,-118.23379
137152,8/1/18,2018,CofO Issued,13010-10000-00897,Bldg-New,1 or 2 Family Dwelling,10331 S CROESUS AVE,90002,1,2,001 unit,R1-1,2430,33.94216,-118.23389
120999,9/26/14,2014,CofO Issued,13010-10000-04290,Bldg-New,1 or 2 Family Dwelling,2126 E 103RD ST,90002,1,2,001 unit,RD2-1,2430,33.94301,-118.23391
120996,9/26/14,2014,CofO Issued,13010-10000-04286,Bldg-New,1 or 2 Family Dwelling,2124 E 103RD ST,90002,1,2,001 unit,RD2-1,2430,33.94301,-118.23399
107881,3/24/14,2014,CofO Issued,11016-10000-14448,Bldg-Alter/Repair,Commercial,527 S MOLINO ST,90013,68,4,050-099 units,M3-1,2060.31,34.04096,-118.23399
174886,1/14/19,2019,CofO Issued,15014-20000-04245,Bldg-Addition,1 or 2 Family Dwelling,2423 W AVENUE 32 ,90065,1,1,001 unit,R2-1,1864.04,34.10898,-118.23442
119786,1/31/18,2018,CofO Issued,12010-10000-02536,Bldg-New,Commercial,905 E 2ND ST,90012,320,5,200+ units,(T)(Q)C2-2D,2060.31,34.04727,-118.23464
157725,3/28/18,2018,CofO Issued,16010-10000-05151,Bldg-New,1 or 2 Family Dwelling,10332 S LOU-DILLON AVE,90002,1,2,001 unit,R1-1,2430,33.94214,-118.23473
157726,3/28/18,2018,CofO Issued,16010-10000-05150,Bldg-New,1 or 2 Family Dwelling,10330 S LOU-DILLON AVE,90002,1,2,001 unit,R1-1,2430,33.9422,-118.23473
131720,10/20/15,2015,CofO Issued,14010-70000-02430,Bldg-New,1 or 2 Family Dwelling,10980 S LOU-DILLON AVE,90059,1,1,001 unit,R1-1,2431,33.93529,-118.23475
103820,1/12/17,2017,CofO Corrected,10014-10000-04711,Bldg-Addition,Commercial,428 S HEWITT ST,90013,1,3,001 unit,M3-1,2060.5,34.04271,-118.23507
160230,10/27/17,2017,CofO Issued,16010-30000-05450,Bldg-New,1 or 2 Family Dwelling,2032 E 112TH ST,90059,1,1,001 unit,R1-1,2431,33.93329,-118.23518
141584,2/7/17,2017,CofO Issued,14016-10000-12406,Bldg-New,1 or 2 Family Dwelling,2311 N RIVERDALE AVE,90031,1,1,001 unit,R1-1VL,1972,34.09072,-118.23527
32088,3/31/18,2018,CofO Issued,06010-70000-00504,Bldg-New,1 or 2 Family Dwelling,9415 S HICKORY ST,90002,1,1,001 unit,R1-1,2422,33.95125,-118.23528
161909,9/24/17,2017,CofO Issued,17010-10000-00015,Bldg-New,1 or 2 Family Dwelling,2264 N RIVERDALE AVE,90031,1,1,001 unit,R1-1VL-RIO,1972,34.09016,-118.23555
160247,9/26/17,2017,CofO Issued,16010-10000-05574,Bldg-New,1 or 2 Family Dwelling,2320 N GLOVER PL,90031,1,1,001 unit,R1-1VL-RIO,1972,34.09129,-118.2356
36611,9/27/18,2018,CofO Issued,05010-70000-05817,Bldg-New,1 or 2 Family Dwelling,10602 S HICKORY ST,90002,1,2,001 unit,R1-1,2430,33.93969,-118.23561
110632,4/15/14,2014,CofO Issued,13010-10000-00258,Bldg-New,1 or 2 Family Dwelling,1816 N BROOKS AVE,90012,1,1,001 unit,R2-1VL,2060.1,34.07834,-118.23573
38903,6/20/13,2013,CofO Issued,06010-70000-01796,Bldg-New,1 or 2 Family Dwelling,2016 E 111TH ST,90059,1,2,001 unit,R1-1,2427,33.93413,-118.23578
38892,12/14/17,2017,CofO Issued,06010-70000-01793,Bldg-New,1 or 2 Family Dwelling,2014 E 111TH ST,90059,1,2,001 unit,R1-1,2427,33.93413,-118.23586
132531,10/20/15,2015,CofO Issued,14010-10000-03142,Bldg-New,1 or 2 Family Dwelling,2012 E 111TH ST,90059,1,1,001 unit,R1-1,2431,33.93413,-118.23595
186642,11/15/18,2018,CofO Issued,02010-10000-00715,Bldg-New,1 or 2 Family Dwelling,9216 S GRAPE ST,90002,1,1,001 unit,R1-1,2422,33.95269,-118.23614
173993,1/26/19,2019,CofO Issued,17010-70000-03816,Bldg-New,1 or 2 Family Dwelling,2020 E 103RD ST,90002,1,1,001 unit,RD2-1,2430,33.94302,-118.23616
136106,1/21/16,2016,CofO Issued,14010-70000-01253,Bldg-New,1 or 2 Family Dwelling,9514 S GRAPE ST,90002,1,1,001 unit,R1-1,2422,33.95008,-118.23616
136104,1/21/16,2016,CofO Issued,14010-70000-01252,Bldg-New,1 or 2 Family Dwelling,9512 S GRAPE ST,90002,1,1,001 unit,R1-1,2422,33.95015,-118.23616
155366,4/8/19,2019,CofO Issued,16010-10000-00978,Bldg-New,1 or 2 Family Dwelling,4488 N VISTA SUPERBA DR,90065,1,3,001 unit,R1-1-CDO,1861,34.132,-118.23637
142837,10/14/16,2016,CofO Issued,15010-70000-03364,Bldg-New,1 or 2 Family Dwelling,1978 E 114TH ST,90059,1,2,001 unit,R1-1,2431,33.93136,-118.23641
107325,5/8/13,2013,CofO Issued,12010-10000-01105,Bldg-New,1 or 2 Family Dwelling,9601 S GRAPE ST,90002,1,1,001 unit,R1-1,2422,33.94905,-118.23643
142835,10/14/16,2016,CofO Issued,15010-70000-03365,Bldg-New,1 or 2 Family Dwelling,1974 E 114TH ST,90059,1,2,001 unit,R1-1,2431,33.93137,-118.2365
132313,2/12/17,2017,CofO Issued,14010-10000-01098,Bldg-New,1 or 2 Family Dwelling,4530 N VISTA SUPERBA DR,90065,1,2,001 unit,R1-1-CDO,1861,34.1329,-118.23652
147976,8/4/18,2018,CofO Issued,14010-10000-01270,Bldg-New,1 or 2 Family Dwelling,2344 W AVENUE 31 ,90065,1,2,001 unit,RD2-1,1864.04,34.10635,-118.23666
99469,5/15/13,2013,CofO Issued,07016-10000-14670,Bldg-Alter/Repair,Commercial,808 N NORTH SPRING ST,90012,123,0,100-199 units,C2-2,2071,34.06198,-118.23674
123542,8/17/15,2015,CofO Issued,13010-70000-04378,Bldg-New,1 or 2 Family Dwelling,10332 S GRAPE ST,90002,1,1,001 unit,R1-1,2430,33.94215,-118.2368
123538,5/28/15,2015,CofO Issued,13010-70000-04370,Bldg-New,1 or 2 Family Dwelling,10328 S GRAPE ST,90002,1,1,001 unit,R1-1,2430,33.94228,-118.2368
123539,8/17/15,2015,CofO Issued,13010-70000-04380,Bldg-New,1 or 2 Family Dwelling,10330 S GRAPE ST,90002,1,1,001 unit,R1-1,2430,33.94221,-118.23681
123541,5/2/15,2015,CofO Issued,13010-70000-04367,Bldg-New,1 or 2 Family Dwelling,10324 S GRAPE ST,90002,1,1,001 unit,R1-1,2430,33.94235,-118.23681
132312,6/26/15,2015,CofO Issued,14010-70000-03712,Bldg-New,1 or 2 Family Dwelling,10982 S GRAPE ST,90059,1,2,001 unit,R1-1,2431,33.93529,-118.23682
132315,6/26/15,2015,CofO Issued,14010-70000-03711,Bldg-New,1 or 2 Family Dwelling,10978 S GRAPE ST,90059,1,2,001 unit,R1-1,2431,33.93536,-118.23683
131164,6/23/15,2015,CofO Issued,14010-10000-03536,Bldg-New,1 or 2 Family Dwelling,9911 S GRAPE ST,90002,2,2,002-004 units,R2-1,2422,33.94632,-118.23694
148281,3/13/19,2019,CofO Issued,13010-10000-04576,Bldg-New,Commercial,435 W BERNARD ST,90012,9,3,005-009 units,C2-2D,2060.1,34.06733,-118.23695
155714,6/29/17,2017,CofO Issued,16010-70000-04110,Bldg-New,1 or 2 Family Dwelling,10923 S GRAPE ST,90059,1,2,001 unit,R1-1,2431,33.93646,-118.23702
149935,1/13/17,2017,CofO Issued,16010-10000-00722,Bldg-New,1 or 2 Family Dwelling,1950 E 97TH ST,90002,1,2,001 unit,R2-1,2422,33.94806,-118.23723
123095,11/9/16,2016,CofO Issued,13010-10000-00126,Bldg-New,Apartment,900 N NORTH BROADWAY ,90012,237,5,200+ units,C2-2,2060.1,34.06408,-118.23726
13473,2/26/13,2013,CofO Issued,05010-70000-02272,Bldg-New,1 or 2 Family Dwelling,9604 S ANZAC AVE,90002,1,2,001 unit,R1-1,2422,33.94898,-118.23729
37873,3/30/16,2016,CofO Issued,06010-10000-00550,Bldg-New,1 or 2 Family Dwelling,2421 N ALTMAN ST,90031,1,1,001 unit,R1-1VL,1972,34.09285,-118.23735
169804,3/22/19,2019,CofO Issued,16010-70000-04332,Bldg-New,1 or 2 Family Dwelling,3138 N VERDUGO ROAD,90065,1,3,001 unit,RD2-1-CDO,1864.04,34.10787,-118.23743
113339,2/19/14,2014,CofO Issued,12010-70000-01293,Bldg-New,1 or 2 Family Dwelling,3130 N VERDUGO ROAD,90065,1,2,001 unit,R2-1-CDO,1864.04,34.10739,-118.23752
107897,9/27/13,2013,CofO Issued,12010-70000-01292,Bldg-New,1 or 2 Family Dwelling,3128 N VERDUGO ROAD,90065,1,1,001 unit,R2-1-CDO,1864.04,34.10727,-118.23753
107713,7/23/13,2013,CofO Issued,12010-70000-01272,Bldg-New,1 or 2 Family Dwelling,3118 N VERDUGO ROAD,90065,1,2,001 unit,RD2-1-CDO,1864.01,34.10709,-118.23754
107428,8/13/13,2013,CofO Issued,12010-70000-01273,Bldg-New,1 or 2 Family Dwelling,3122 N VERDUGO ROAD,90065,1,1,001 unit,RD2-1-CDO,1864.01,34.10717,-118.23754
39646,6/18/16,2016,CofO Issued,06010-70000-03321,Bldg-New,1 or 2 Family Dwelling,9523 S ANZAC AVE,90002,1,2,001 unit,R1-1,2422,33.9498,-118.23756
155648,9/7/17,2017,CofO Issued,16010-10000-03852,Bldg-New,1 or 2 Family Dwelling,9818 S ANZAC AVE,90002,2,2,002-004 units,R2-1,2422,33.94691,-118.23774
150288,4/6/17,2017,CofO Issued,16010-70000-00328,Bldg-New,1 or 2 Family Dwelling,1934 E 114TH ST,90059,1,2,001 unit,R1-1,2431,33.93133,-118.23781
32567,7/14/16,2016,CofO Issued,06010-70000-00941,Bldg-New,1 or 2 Family Dwelling,10352 S ANZAC AVE,90002,1,2,001 unit,R1-1,2430,33.94164,-118.23785
121219,9/15/14,2014,CofO Issued,13010-70000-03402,Bldg-New,1 or 2 Family Dwelling,1930 E 114TH ST,90059,1,2,001 unit,R1-1,2431,33.93138,-118.23789
80777,8/23/13,2013,CofO Issued,07016-10000-24015,Bldg-Alter/Repair,Commercial,825 E 4TH ST,90013,53,6,050-099 units,M3-1,2060.5,34.04359,-118.23793
143266,9/12/17,2017,CofO Issued,15010-10000-03493,Bldg-New,1 or 2 Family Dwelling,10612 S ANZAC AVE,90002,1,1,001 unit,R1-1,2430,33.93966,-118.23794
121220,9/15/14,2014,CofO Issued,13010-70000-03401,Bldg-New,1 or 2 Family Dwelling,1928 E 114TH ST,90059,1,2,001 unit,R1-1,2431,33.93138,-118.23798
92256,11/18/14,2014,CofO Issued,10010-20000-00666,Bldg-New,1 or 2 Family Dwelling,3515 N FLETCHER DR,90065,1,2,001 unit,RD2-1-CDO,1864.01,34.11921,-118.23802
170128,10/4/18,2018,CofO Issued,17010-70000-02516,Bldg-New,1 or 2 Family Dwelling,10825 S ANZAC AVE,90059,1,1,001 unit,R1-1,2431,33.93715,-118.23805
169467,10/11/18,2018,CofO Issued,17010-70000-02514,Bldg-New,1 or 2 Family Dwelling,10823 S ANZAC AVE,90059,1,1,001 unit,R1-1,2431,33.93722,-118.23805
169466,10/4/18,2018,CofO Issued,17010-70000-02515,Bldg-New,1 or 2 Family Dwelling,10821 S ANZAC AVE,90059,1,1,001 unit,R1-1,2431,33.93729,-118.23806
115474,3/7/14,2014,CofO Issued,13010-20000-01277,Bldg-New,1 or 2 Family Dwelling,10615 S ANZAC AVE,90002,1,1,001 unit,R1-1,2430,33.93927,-118.2381
121217,3/7/14,2014,CofO Issued,13010-20000-00335,Bldg-New,1 or 2 Family Dwelling,10615 S ANZAC AVE,90002,1,1,001 unit,R1-1,2430,33.93927,-118.2381
112102,1/14/14,2014,CofO Issued,13010-10000-00103,Bldg-New,1 or 2 Family Dwelling,3514 N FLETCHER DR,90065,1,2,001 unit,RD2-1-CDO,1864.01,34.11888,-118.23813
112101,1/14/14,2014,CofO Issued,13010-10000-00102,Bldg-New,1 or 2 Family Dwelling,3514 N FLETCHER DR,90065,1,2,001 unit,RD2-1-CDO,1864.01,34.11888,-118.23813
112100,1/14/14,2014,CofO Issued,13010-10000-00101,Bldg-New,1 or 2 Family Dwelling,3514 N FLETCHER DR,90065,1,2,001 unit,RD2-1-CDO,1864.01,34.11888,-118.23813
136993,1/21/16,2016,CofO Issued,15010-70000-00343,Bldg-New,1 or 2 Family Dwelling,11514 S WILLOWBROOK AVE,90059,1,2,001 unit,R1-1,2431,33.93005,-118.23825
112097,1/14/14,2014,CofO Issued,13010-10000-00098,Bldg-New,1 or 2 Family Dwelling,3510 N FLETCHER DR,90065,1,2,001 unit,RD2-1-CDO,1864.01,34.11889,-118.23827
112098,1/14/14,2014,CofO Issued,13010-10000-00099,Bldg-New,1 or 2 Family Dwelling,3510 N FLETCHER DR,90065,1,2,001 unit,RD2-1-CDO,1864.01,34.11889,-118.23827
112099,1/14/14,2014,CofO Issued,13010-10000-00100,Bldg-New,1 or 2 Family Dwelling,3510 N FLETCHER DR,90065,1,2,001 unit,RD2-1-CDO,1864.01,34.11889,-118.23827
139374,5/19/16,2016,CofO Issued,15010-70000-01449,Bldg-New,1 or 2 Family Dwelling,9315 S WILMINGTON AVE,90002,1,1,001 unit,R1-1,2422,33.95194,-118.23868
172648,6/25/18,2018,CofO Issued,16016-10000-20850,Bldg-Alter/Repair,Apartment,970 N YALE ST,90012,1,0,001 unit,C2-2D,2071.03,34.06678,-118.2388
138540,3/1/16,2016,CofO Issued,15010-70000-01951,Bldg-New,1 or 2 Family Dwelling,10354 S WILMINGTON AVE,90002,2,2,002-004 units,[Q]C2-1,2430,33.94217,-118.23888
138536,3/1/16,2016,CofO Issued,15010-70000-01950,Bldg-New,1 or 2 Family Dwelling,10350 S WILMINGTON AVE,90002,2,2,002-004 units,[Q]C2-1,2430,33.94224,-118.23888
125609,1/9/15,2015,CofO Issued,14010-70000-01535,Bldg-New,1 or 2 Family Dwelling,10954 S WILMINGTON AVE,90059,2,2,002-004 units,C2-1VL,2431,33.93604,-118.2389
125608,1/9/15,2015,CofO Issued,14010-70000-01534,Bldg-New,1 or 2 Family Dwelling,10952 S WILMINGTON AVE,90059,2,2,002-004 units,C2-1VL,2431,33.93612,-118.2389
176017,6/30/18,2018,CofO Issued,17016-10001-11392,Bldg-Alter/Repair,1 or 2 Family Dwelling,2553 W AVENUE 31 ,90065,1,2,001 unit,RD3-1-CDO,1864.03,34.10913,-118.23894
137750,5/14/16,2016,CofO Issued,15010-10000-01171,Bldg-New,1 or 2 Family Dwelling,10715 S WILMINGTON AVE,90002,2,2,002-004 units,[Q]C2-1,2427,33.93855,-118.23926
27611,5/30/17,2017,CofO Issued,05010-70000-06138,Bldg-New,1 or 2 Family Dwelling,9630 S BANDERA ST,90002,2,2,002-004 units,R2-1,2422,33.94836,-118.23955
50799,5/14/16,2016,CofO Issued,07010-70000-00437,Bldg-New,1 or 2 Family Dwelling,9819 S BANDERA ST,90002,1,2,001 unit,R1-1,2422,33.94684,-118.23978
118601,5/27/14,2014,CofO Issued,13010-10000-02210,Bldg-New,1 or 2 Family Dwelling,1826 E 106TH ST,90002,1,1,001 unit,R1-1,2427,33.93969,-118.23979
94196,3/21/16,2016,CofO Issued,08010-10000-00219,Bldg-New,Commercial,639 N NORTH BROADWAY ,90012,280,6,200+ units,C2-2,2071.02,34.05972,-118.2398
55684,5/31/17,2017,CofO Issued,05010-40000-06744,Bldg-New,1 or 2 Family Dwelling,704 W BERNARD ST,90012,1,2,001 unit,R3-1-O,1977,34.06773,-118.24014
55681,6/3/17,2017,CofO Issued,05010-40000-06742,Bldg-New,1 or 2 Family Dwelling,700 W BERNARD ST,90012,1,2,001 unit,R3-1-O,1977,34.06773,-118.24014
153287,9/12/17,2017,CofO Issued,15010-70000-01125,Bldg-New,1 or 2 Family Dwelling,1831 E 97TH ST,90002,2,2,002-004 units,R2-1,2422,33.94827,-118.24015
117028,7/22/14,2014,CofO Issued,13010-10000-01247,Bldg-New,1 or 2 Family Dwelling,1815 E IMPERIAL HWY,90059,2,2,002-004 units,CR-1VL,2427,33.92969,-118.24039
134078,9/1/15,2015,CofO Issued,14010-10000-04116,Bldg-New,1 or 2 Family Dwelling,10308 S MAIN ST,90003,2,2,002-004 units,[Q]C2-1,2405,33.7775,-118.24056
108918,4/29/13,2013,CofO Issued,12010-70000-02422,Bldg-New,1 or 2 Family Dwelling,9324 S HOLMES AVE,90002,2,2,002-004 units,R2-1,2422,33.95179,-118.24063
175345,1/22/19,2019,CofO Issued,17010-70000-04653,Bldg-New,1 or 2 Family Dwelling,9516 S HOLMES AVE,90002,1,2,001 unit,R2-1,2422,33.95012,-118.24064
175343,1/22/19,2019,CofO Issued,17010-70000-04654,Bldg-New,1 or 2 Family Dwelling,9518 S HOLMES AVE,90002,1,2,001 unit,R2-1,2422,33.95004,-118.24065
184281,1/24/19,2019,CofO Issued,18016-10000-02689,Bldg-Alter/Repair,1 or 2 Family Dwelling,9324 S HOLMES AVE,90002,1,1,001 unit,R2-1,2422,33.95179,-118.24075
167800,4/12/18,2018,CofO Issued,17010-10000-01881,Bldg-New,1 or 2 Family Dwelling,1785 E IMPERIAL HWY,90059,2,2,002-004 units,RD2-1,2427,33.92968,-118.24095
138826,6/9/16,2016,CofO Issued,15010-70000-01862,Bldg-New,1 or 2 Family Dwelling,1775 E 108TH ST,90059,1,2,001 unit,R2-1,2427,33.93797,-118.24099
138827,6/9/16,2016,CofO Issued,15010-70000-01861,Bldg-New,1 or 2 Family Dwelling,1777 E 108TH ST,90059,1,2,001 unit,R2-1,2427,33.93790,-118.24110
136128,3/22/16,2016,CofO Issued,15016-20000-05500,Bldg-Alter/Repair,Apartment,3421 N DREW ST,90065,2,1,002-004 units,RD2-1-CDO,1863.01,34.1215,-118.24121
120097,9/22/15,2015,CofO Issued,13014-10000-00850,Bldg-Addition,1 or 2 Family Dwelling,1778 E 111TH PL,90059,1,1,001 unit,R1-1,2427,33.93377,-118.2415
172456,2/14/19,2019,CofO Issued,17010-10000-03451,Bldg-New,1 or 2 Family Dwelling,1771 E 113TH ST,90059,1,2,001 unit,R1-1,2427,33.93218,-118.24157
172454,2/14/19,2019,CofO Issued,17010-10000-03448,Bldg-New,1 or 2 Family Dwelling,1769 E 113TH ST,90059,1,2,001 unit,R1-1,2427,33.93218,-118.24163
29044,2/11/18,2018,CofO Issued,03010-10000-01103,Bldg-New,1 or 2 Family Dwelling,711 N YALE ST,90012,2,2,002-004 units,R4-1,2071,34.06154,-118.24164
90176,7/16/14,2014,CofO Issued,10010-10000-01094,Bldg-New,Apartment,719 N YALE ST,90012,60,8,050-099 units,R4-1,2071.02,34.06181,-118.24168
145788,8/29/17,2017,CofO Issued,16014-70000-00225,Bldg-Addition,1 or 2 Family Dwelling,9220 S BEACH ST,90002,1,0,001 unit,R1-1,2422,33.95259,-118.24178
43175,7/9/16,2016,CofO Issued,06010-70000-00244,Bldg-New,1 or 2 Family Dwelling,9214 S BEACH ST,90002,1,2,001 unit,R1-1,2422,33.95272,-118.24178
43554,5/30/17,2017,CofO Issued,06010-70000-00245,Bldg-New,1 or 2 Family Dwelling,9216 S BEACH ST,90002,1,2,001 unit,R1-1,2422,33.95272,-118.24178
131471,8/6/15,2015,CofO Issued,14010-10000-02882,Bldg-New,1 or 2 Family Dwelling,1728 E 107TH ST,90002,2,2,002-004 units,R2-1,2427,33.9385,-118.24182
132901,12/14/15,2015,CofO Issued,14014-10000-03536,Bldg-Addition,Apartment,3334 N DREW ST,90065,4,2,002-004 units,RD2-1-CDO,1863.01,34.12054,-118.24197
110344,7/9/13,2013,CofO Issued,12010-70000-02912,Bldg-New,1 or 2 Family Dwelling,9511 S BEACH ST,90002,1,2,001 unit,R1-1,2422,33.95023,-118.242
110342,7/9/13,2013,CofO Issued,12010-70000-02911,Bldg-New,1 or 2 Family Dwelling,9507 S BEACH ST,90002,1,2,001 unit,R1-1,2422,33.9503,-118.24201
138542,4/17/17,2017,CofO Issued,14010-10000-02773,Bldg-New,1 or 2 Family Dwelling,3305 N ANDRITA ST,90065,1,1,001 unit,RD2-1-CDO,1863.01,34.11926,-118.24211
138541,4/17/17,2017,CofO Issued,14010-10000-02772,Bldg-New,1 or 2 Family Dwelling,3157 W ESTARA AVE,90065,2,2,002-004 units,RD2-1-CDO,1863.01,34.1192,-118.2422
170694,3/18/19,2019,CofO Issued,17010-70000-00309,Bldg-New,1 or 2 Family Dwelling,10802 S WILLOWBROOK AVE,90059,1,2,001 unit,R2-1,2427,33.93774,-118.24229
114029,1/15/17,2017,CofO Issued,13010-20000-00701,Bldg-New,1 or 2 Family Dwelling,3014 W AVENUE 32 ,90065,1,1,001 unit,RD2-1-CDO,1864.01,34.11508,-118.2423
170693,3/18/19,2019,CofO Issued,17010-70000-00311,Bldg-New,1 or 2 Family Dwelling,10800 S WILLOWBROOK AVE,90059,1,2,001 unit,R2-1,2427,33.93778,-118.24234
120436,6/16/17,2017,CofO Corrected,12010-10000-01694,Bldg-New,Apartment,232 E 2ND ST,90012,240,7,200+ units,[Q]C2-4D-O,2062,34.04956,-118.24249
